[
{"AdUrl": "https://www.lacartedescolocs.fr/colocations/fr/ile-de-france/paris/a/8wt6xe", "AdTitle": "Appartement 3 pièces de 60 m²", "RentalPrice_EUR": "880", "RentalAddrese": "Avenue Simon Bolivar, Paris", "RentalSize_m2": "60", "RentalRooms": "3", "RentalType": "Appartement", "Furnished": "Meublé", "Lat": "48.88065", "Lon": "2.37384"},
{"AdUrl": "https://www.lacartedescolocs.fr/colocations/fr/ile-de-france/paris/a/hiemf9", "AdTitle": "Appartement 3 pièces de 60 m²", "RentalPrice_EUR": "1060", "RentalAddrese": "Rue Oscar Roty, Paris", "RentalSize_m2": "60", "RentalRooms": "3", "RentalType": "Appartement", "Furnished": "Meublé", "Lat": "48.84188", "Lon": "2.28847"},
{"AdUrl": "https://www.lacartedescolocs.fr/colocations/fr/ile-de-france/paris/a/uiigaw", "AdTitle": "Appartement 5 pièces de 99 m²", "RentalPrice_EUR": "694", "RentalAddrese": "Rue Henri Ribière, Paris", "RentalSize_m2": "99", "RentalRooms": "5", "RentalType": "Appartement", "Lat": "48.87716", "Lon": "2.39542"},
{"AdUrl": "https://www.lacartedescolocs.fr/colocations/fr/ile-de-france/paris/a/vo9csk", "AdTitle": "Appartement 6 pièces de 82 m²", "RentalPrice_EUR": "990", "RentalAddrese": "Rue de l'Eglise, Paris", "RentalSize_m2": "82", "RentalRooms": "6", "RentalType": "Appartement", "Furnished": "Meublé", "Lat": "48.84438", "Lon": "2.28736"},
{"AdUrl": "https://www.lacartedescolocs.fr/colocations/fr/ile-de-france/paris/a/t233s3", "AdTitle": "Appartement 4 pièces de 105 m²", "RentalPrice_EUR": "890", "RentalAddrese": "Rue Spontini, Paris", "RentalSize_m2": "105", "RentalRooms": "4", "RentalFloor": "Rez-de-chaussée", "RentalType": "Appartement", "Furnished": "Meublé", "Lat": "48.86988", "Lon": "2.27839"},
{"AdUrl": "https://www.lacartedescolocs.fr/colocations/fr/ile-de-france/paris/a/dcnub6", "AdTitle": "Appartement 3 pièces de 70 m²", "RentalPrice_EUR": "1190", "RentalAddrese": "Boulevard Exelmans, Paris", "RentalSize_m2": "70", "RentalRooms": "3", "RentalType": "Appartement", "Furnished": "Meublé", "Lat": "48.84026", "Lon": "2.2656"},
{"AdUrl": "https://www.lacartedescolocs.fr/colocations/fr/ile-de-france/paris/a/3ebp8l", "AdTitle": "Appartement 2 pièces de 30 m²", "RentalPrice_EUR": "750", "RentalAddrese": "Rue des Pyrénées, Paris", "RentalSize_m2": "30", "RentalRooms": "2", "RentalType": "Appartement", "Lat": "48.86906", "Lon": "2.39506"},
{"AdUrl": "https://www.lacartedescolocs.fr/colocations/fr/ile-de-france/paris/a/a9x2o8", "AdTitle": "Appartement 3 pièces de 68 m²", "RentalPrice_EUR": "890", "RentalAddrese": "Rue de la Justice, Paris", "RentalSize_m2": "68", "RentalRooms": "3", "RentalType": "Appartement", "Furnished": "Meublé", "Lat": "48.86912", "Lon": "2.40778"},
{"AdUrl": "https://www.lacartedescolocs.fr/colocations/fr/ile-de-france/paris/a/46isql", "AdTitle": "Appartement 4 pièces de 100 m²", "RentalPrice_EUR": "1160", "RentalAddrese": "Rue de la Boétie, Paris", "RentalSize_m2": "100", "RentalRooms": "4", "RentalType": "Appartement", "Furnished": "Meublé", "Lat": "48.87246", "Lon": "2.30947"},
{"AdUrl": "https://www.lacartedescolocs.fr/colocations/fr/ile-de-france/paris/a/718w3j", "AdTitle": "Appartement 3 pièces de 69 m²", "RentalPrice_EUR": "751", "RentalAddrese": "Rue Félicien David, Paris", "RentalSize_m2": "69", "RentalRooms": "3", "RentalType": "Appartement", "Furnished": "Meublé", "Lat": "48.84946", "Lon": "2.27414"},
{"AdUrl": "https://www.lacartedescolocs.fr/colocations/fr/ile-de-france/paris/a/nv6rpk", "AdTitle": "Appartement 8 pièces de 147 m²", "RentalPrice_EUR": "1185", "RentalAddrese": "Rue Juge, Paris", "RentalSize_m2": "147", "RentalRooms": "8", "RentalType": "Appartement", "Lat": "48.85008", "Lon": "2.29224"},
{"AdUrl": "https://www.lacartedescolocs.fr/colocations/fr/ile-de-france/paris/a/3kx3uc", "AdTitle": "Appartement 5 pièces de 100 m²", "RentalPrice_EUR": "975", "RentalAddrese": "Rue de Lourmel, Paris", "RentalSize_m2": "100", "RentalRooms": "5", "RentalType": "Appartement", "Furnished": "Meublé", "Lat": "48.84033", "Lon": "2.28355"},
{"AdUrl": "https://www.lacartedescolocs.fr/colocations/fr/ile-de-france/paris/a/s3jnee", "AdTitle": "Appartement 3 pièces de 54 m²", "RentalPrice_EUR": "735", "RentalAddrese": "Rue Boussingault, Paris", "RentalSize_m2": "54", "RentalRooms": "3", "RentalFloor": "9ème étage", "RentalType": "Appartement", "Lat": "48.8243", "Lon": "2.34414"},
{"AdUrl": "https://www.lacartedescolocs.fr/colocations/fr/ile-de-france/paris/a/zwof2z", "AdTitle": "Appartement", "RentalPrice_EUR": "750", "RentalAddrese": "Paris", "RentalType": "Appartement", "Lat": "48.873", "Lon": "2.40824"},
{"AdUrl": "https://www.lacartedescolocs.fr/colocations/fr/ile-de-france/paris/a/ybuimp", "AdTitle": "Appartement 4 pièces de 80 m²", "RentalPrice_EUR": "965", "RentalAddrese": "Rue de Vouillé, Paris", "RentalSize_m2": "80", "RentalRooms": "4", "RentalType": "Appartement", "Furnished": "Meublé", "Lat": "48.83468", "Lon": "2.30452"},
{"AdUrl": "https://www.lacartedescolocs.fr/colocations/fr/ile-de-france/paris/a/yqhzo3", "AdTitle": "Appartement 3 pièces de 50 m²", "RentalPrice_EUR": "800", "RentalAddrese": "Boulevard Exelmans, Paris", "RentalSize_m2": "50", "RentalRooms": "3", "RentalType": "Appartement", "Furnished": "Meublé", "Lat": "48.84104", "Lon": "2.26512"},
{"AdUrl": "https://www.lacartedescolocs.fr/colocations/fr/ile-de-france/paris/a/qc5slr", "AdTitle": "Appartement 3 pièces de 67 m²", "RentalPrice_EUR": "1057", "RentalAddrese": "Rue Paulin Méry, Paris", "RentalSize_m2": "67", "RentalRooms": "3", "RentalType": "Appartement", "Furnished": "Meublé", "Lat": "48.8298", "Lon": "2.3535"},
{"AdUrl": "https://www.lacartedescolocs.fr/colocations/fr/ile-de-france/paris/a/4nsfio", "AdTitle": "Immeuble 2 pièces de 65 m²", "RentalPrice_EUR": "1300", "RentalAddrese": "Boulevard Haussmann, Paris", "RentalSize_m2": "65", "RentalRooms": "2", "RentalType": "Immeuble", "Furnished": "Meublé", "Lat": "48.87525", "Lon": "2.30938"},
{"AdUrl": "https://www.lacartedescolocs.fr/colocations/fr/ile-de-france/paris/a/86z3rk", "AdTitle": "Appartement 5 pièces de 103 m²", "RentalPrice_EUR": "1020", "RentalAddrese": "94 Rue de Crimée,, Paris", "RentalSize_m2": "103", "RentalRooms": "5", "RentalType": "Appartement", "Furnished": "Meublé", "Lat": "48.88409", "Lon": "2.38463"},
{"AdUrl": "https://www.lacartedescolocs.fr/colocations/fr/ile-de-france/paris/a/dbprsl", "AdTitle": "Appartement 5 pièces de 120 m²", "RentalPrice_EUR": "1050", "RentalAddrese": "Avenue de la Grande Armée, Paris", "RentalSize_m2": "120", "RentalRooms": "5", "RentalFloor": "Duplex", "RentalType": "Appartement", "Furnished": "Meublé", "Lat": "48.87671", "Lon": "2.28631"},
{"AdUrl": "https://www.lacartedescolocs.fr/colocations/fr/ile-de-france/paris/a/wwyhbw", "AdTitle": "Appartement 4 pièces de 110 m²", "RentalPrice_EUR": "1100", "RentalAddrese": "Rue de l'Abbé Groult, Paris", "RentalSize_m2": "110", "RentalRooms": "4", "RentalType": "Appartement", "Furnished": "Meublé", "Lat": "48.83897", "Lon": "2.29805"},
{"AdUrl": "https://www.lacartedescolocs.fr/colocations/fr/ile-de-france/paris/a/fi07hj", "AdTitle": "Appartement 4 pièces de 72 m²", "RentalPrice_EUR": "880", "RentalAddrese": "Avenue de la Porte des Lilas, Paris", "RentalSize_m2": "72", "RentalRooms": "4", "RentalType": "Appartement", "Furnished": "Meublé", "Lat": "48.87798", "Lon": "2.40739"},
{"AdUrl": "https://www.lacartedescolocs.fr/colocations/fr/ile-de-france/paris/a/0m2he8", "AdTitle": "Appartement 5 pièces de 130 m²", "RentalPrice_EUR": "1170", "RentalAddrese": "Rue de Casablanca, Paris", "RentalSize_m2": "130", "RentalRooms": "5", "RentalType": "Appartement", "Furnished": "Meublé", "Lat": "48.839", "Lon": "2.28898"},
{"AdUrl": "https://www.lacartedescolocs.fr/colocations/fr/ile-de-france/paris/a/2e58e5", "AdTitle": "Appartement 5 pièces de 75 m²", "RentalPrice_EUR": "816", "RentalAddrese": "Rue de Navarin, Paris", "RentalSize_m2": "75", "RentalRooms": "5", "RentalType": "Appartement", "Lat": "48.87985", "Lon": "2.33774"},
{"AdUrl": "https://www.lacartedescolocs.fr/colocations/fr/ile-de-france/paris/a/7xqic2", "AdTitle": "Appartement 4 pièces de 70 m²", "RentalPrice_EUR": "950", "RentalAddrese": "Rue Pouchet, Paris", "RentalSize_m2": "70", "RentalRooms": "4", "RentalType": "Appartement", "Furnished": "Meublé", "Lat": "48.89249", "Lon": "2.31937"},
{"AdUrl": "https://www.lacartedescolocs.fr/colocations/fr/ile-de-france/paris/a/5lcej0", "AdTitle": "Appartement 16 pièces de 355 m²", "RentalPrice_EUR": "1136", "RentalAddrese": "Rue de Mouzaïa, Paris", "RentalSize_m2": "355", "RentalRooms": "16", "RentalType": "Appartement", "Furnished": "Meublé", "Lat": "2.39139", "Lon": "48.88"},
{"AdUrl": "https://www.lacartedescolocs.fr/colocations/fr/ile-de-france/paris/a/z1kgfi", "AdTitle": "Appartement 5 pièces de 95 m²", "RentalPrice_EUR": "821", "RentalAddrese": "Rue Saint-Paul, Paris", "RentalSize_m2": "95", "RentalRooms": "5", "RentalType": "Appartement", "Lat": "48.8536", "Lon": "2.3617"},
{"AdUrl": "https://www.lacartedescolocs.fr/colocations/fr/ile-de-france/paris/a/zm0bc1", "AdTitle": "Appartement 3 pièces de 57 m²", "RentalPrice_EUR": "850", "RentalAddrese": "Rue Du Rhin, Paris", "RentalSize_m2": "57", "RentalRooms": "3", "RentalFloor": "Rez-de-chaussée", "RentalType": "Appartement", "Furnished": "Meublé", "Lat": "48.8844", "Lon": "2.38161"},
{"AdUrl": "https://www.lacartedescolocs.fr/colocations/fr/ile-de-france/paris/a/at36e9", "AdTitle": "Appartement 6 pièces de 130 m²", "RentalPrice_EUR": "1005", "RentalAddrese": "Rue des Volontaires, Paris", "RentalSize_m2": "130", "RentalRooms": "6", "RentalType": "Appartement", "Furnished": "Meublé", "Lat": "48.84327", "Lon": "2.30684"},
{"AdUrl": "https://www.lacartedescolocs.fr/colocations/fr/ile-de-france/paris/a/7hco4p", "AdTitle": "Appartement 4 pièces de 120 m²", "RentalPrice_EUR": "425", "RentalAddrese": "Rue Cler, Paris", "RentalSize_m2": "120", "RentalRooms": "4", "RentalType": "Appartement", "Furnished": "Meublé", "Lat": "48.85808", "Lon": "2.30563"},
{"AdUrl": "https://www.lacartedescolocs.fr/colocations/fr/ile-de-france/paris/a/ab8dva", "AdTitle": "Appartement 3 pièces de 65 m²", "RentalPrice_EUR": "715", "RentalAddrese": "Rue de la Marseillaise, Paris", "RentalSize_m2": "65", "RentalRooms": "3", "RentalType": "Appartement", "Furnished": "Meublé", "Lat": "48.88873", "Lon": "2.39808"},
{"AdUrl": "https://www.lacartedescolocs.fr/colocations/fr/ile-de-france/paris/a/tyqekq", "AdTitle": "Appartement", "RentalPrice_EUR": "885", "RentalAddrese": "Paris", "RentalType": "Appartement", "Lat": "48.8945", "Lon": "2.34911"},
{"AdUrl": "https://www.lacartedescolocs.fr/colocations/fr/ile-de-france/paris/a/it5zld", "AdTitle": "Appartement 4 pièces de 86 m²", "RentalPrice_EUR": "820", "RentalAddrese": "Passage Foubert, Paris", "RentalSize_m2": "86", "RentalRooms": "4", "RentalType": "Appartement", "Furnished": "Meublé", "Lat": "48.82525", "Lon": "2.35294"},
{"AdUrl": "https://www.lacartedescolocs.fr/colocations/fr/ile-de-france/paris/a/sg665z", "AdTitle": "Appartement 3 pièces de 80 m²", "RentalPrice_EUR": "840", "RentalAddrese": "Boulevard Brune, Paris", "RentalSize_m2": "80", "RentalRooms": "3", "RentalType": "Appartement", "Furnished": "Meublé", "Lat": "48.82701", "Lon": "2.30967"},
{"AdUrl": "https://www.lacartedescolocs.fr/colocations/fr/ile-de-france/paris/a/tvi94f", "AdTitle": "Appartement", "RentalPrice_EUR": "600", "RentalAddrese": "Paris", "RentalType": "Appartement", "Lat": "48.8297", "Lon": "2.30895"},
{"AdUrl": "https://www.lacartedescolocs.fr/colocations/fr/ile-de-france/paris/a/bkfsr5", "AdTitle": "Appartement 5 pièces de 79 m²", "RentalPrice_EUR": "890", "RentalAddrese": "Bis Rue Rebeval, Paris", "RentalSize_m2": "79", "RentalRooms": "5", "RentalType": "Appartement", "Furnished": "Meublé", "Lat": "48.8747", "Lon": "2.3798"},
{"AdUrl": "https://www.lacartedescolocs.fr/colocations/fr/ile-de-france/paris/a/u2q3x4", "AdTitle": "Appartement 6 pièces de 165 m²", "RentalPrice_EUR": "875", "RentalAddrese": "Rue de Maubeuge, Paris", "RentalSize_m2": "165", "RentalRooms": "6", "RentalType": "Appartement", "Furnished": "Meublé", "Lat": "48.87994", "Lon": "2.35008"},
{"AdUrl": "https://www.lacartedescolocs.fr/colocations/fr/ile-de-france/paris/a/v255s7", "AdTitle": "Appartement 4 pièces de 100 m²", "RentalPrice_EUR": "1200", "RentalAddrese": "Rue Gabriel Laumain, Paris", "RentalSize_m2": "100", "RentalRooms": "4", "RentalType": "Appartement", "Lat": "48.87343", "Lon": "2.3489"},
{"AdUrl": "https://www.lacartedescolocs.fr/colocations/fr/ile-de-france/paris/a/1cke4p", "AdTitle": "Appartement 4 pièces de 107 m²", "RentalPrice_EUR": "761", "RentalAddrese": "Rue de Maubeuge, Paris", "RentalSize_m2": "107", "RentalRooms": "4", "RentalType": "Appartement", "Furnished": "Meublé", "Lat": "48.88352", "Lon": "2.3554"},
{"AdUrl": "https://www.lacartedescolocs.fr/colocations/fr/ile-de-france/paris/a/jlct9k", "AdTitle": "Appartement 4 pièces de 74 m²", "RentalPrice_EUR": "950", "RentalAddrese": "Rue Brancion, Paris", "RentalSize_m2": "74", "RentalRooms": "4", "RentalType": "Appartement", "Furnished": "Meublé", "Lat": "48.83307", "Lon": "2.30336"},
{"AdUrl": "https://www.lacartedescolocs.fr/colocations/fr/ile-de-france/paris/a/8baska", "AdTitle": "Appartement 4 pièces de 90 m²", "RentalPrice_EUR": "1045", "RentalAddrese": "Rue de Saussure, Paris", "RentalSize_m2": "90", "RentalRooms": "4", "RentalType": "Appartement", "Furnished": "Meublé", "Lat": "48.88962", "Lon": "2.30709"},
{"AdUrl": "https://www.lacartedescolocs.fr/colocations/fr/ile-de-france/paris/a/igclna", "AdTitle": "Appartement 8 pièces de 113 m²", "RentalPrice_EUR": "825", "RentalAddrese": "Avenue de Versailles, Paris", "RentalSize_m2": "113", "RentalRooms": "8", "RentalType": "Appartement", "Furnished": "Meublé", "Lat": "48.83875", "Lon": "2.26064"},
{"AdUrl": "https://www.lacartedescolocs.fr/colocations/fr/ile-de-france/paris/a/0k1cip", "AdTitle": "Appartement 3 pièces de 65 m²", "RentalPrice_EUR": "900", "RentalAddrese": "Rue Doudeauville, Paris", "RentalSize_m2": "65", "RentalRooms": "3", "RentalType": "Appartement", "Furnished": "Meublé", "Lat": "48.88899", "Lon": "2.35837"},
{"AdUrl": "https://www.lacartedescolocs.fr/colocations/fr/ile-de-france/paris/a/vmu386", "AdTitle": "Appartement 3 pièces de 63 m²", "RentalPrice_EUR": "875", "RentalAddrese": "Rue Berzelius, Paris", "RentalSize_m2": "63", "RentalRooms": "3", "RentalFloor": "2ème étage", "RentalType": "Appartement", "Furnished": "Meublé", "Lat": "48.8935", "Lon": "2.3192"},
{"AdUrl": "https://www.lacartedescolocs.fr/colocations/fr/ile-de-france/paris/a/r05m16", "AdTitle": "Duplex 3 pièces de 80 m²", "RentalPrice_EUR": "1111", "RentalAddrese": "Rue Rémy de Gourmont, Paris", "RentalSize_m2": "80", "RentalRooms": "3", "RentalType": "Duplex", "Furnished": "Meublé", "Lat": "48.87745", "Lon": "2.37756"},
{"AdUrl": "https://www.lacartedescolocs.fr/colocations/fr/ile-de-france/paris/a/873qn8", "AdTitle": "Studio de 25 m²", "RentalPrice_EUR": "430", "RentalAddrese": "Avenue De La Sibelle, Paris", "RentalSize_m2": "25", "RentalType": "Studio", "Furnished": "Meublé", "Lat": "48.82569", "Lon": "2.33825"},
{"AdUrl": "https://www.lacartedescolocs.fr/colocations/fr/ile-de-france/paris/a/q4fss5", "AdTitle": "Immeuble 2 pièces de 55 m²", "RentalPrice_EUR": "930", "RentalAddrese": "Rue Michel-Ange, Paris", "RentalSize_m2": "55", "RentalRooms": "2", "RentalType": "Immeuble", "Furnished": "Meublé", "Lat": "48.84261", "Lon": "2.25991"},
{"AdUrl": "https://www.lacartedescolocs.fr/colocations/fr/ile-de-france/paris/a/ehfws6", "AdTitle": "Appartement", "RentalPrice_EUR": "700", "RentalAddrese": "Paris", "RentalType": "Appartement", "Lat": "48.8442", "Lon": "2.3714"},
{"AdUrl": "https://www.lacartedescolocs.fr/colocations/fr/ile-de-france/paris/a/p2aykc", "AdTitle": "Appartement 3 pièces de 64 m²", "RentalPrice_EUR": "754", "RentalAddrese": "Boulevard Lefebvre, Paris", "RentalSize_m2": "64", "RentalRooms": "3", "RentalType": "Appartement", "Furnished": "Meublé", "Lat": "48.83093", "Lon": "2.29298"},
{"AdUrl": "https://www.lacartedescolocs.fr/colocations/fr/ile-de-france/paris/a/dyukis", "AdTitle": "Appartement 8 pièces de 85 m²", "RentalPrice_EUR": "1033", "RentalAddrese": "Rue du Père Brottier, Paris", "RentalSize_m2": "85", "RentalRooms": "8", "RentalType": "Appartement", "Furnished": "Meublé", "Lat": "48.84975", "Lon": "2.27109"},
{"AdUrl": "https://www.lacartedescolocs.fr/colocations/fr/ile-de-france/paris/a/w7z8ub", "AdTitle": "Appartement 4 pièces de 90 m²", "RentalPrice_EUR": "1115", "RentalAddrese": "Rue Jean-Pierre Bloch, Paris", "RentalSize_m2": "90", "RentalRooms": "4", "RentalType": "Appartement", "Furnished": "Meublé", "Lat": "48.85352", "Lon": "2.29629"},
{"AdUrl": "https://www.lacartedescolocs.fr/colocations/fr/ile-de-france/paris/a/w1jmyt", "AdTitle": "Appartement 1 pièce de 308 m²", "RentalPrice_EUR": "1265", "RentalAddrese": "24 Rue Hermel,, Paris", "RentalSize_m2": "308", "RentalRooms": "1", "RentalType": "Appartement", "Furnished": "Meublé", "Lat": "48.89196", "Lon": "2.34498"},
{"AdUrl": "https://www.lacartedescolocs.fr/colocations/fr/ile-de-france/paris/a/dvst2z", "AdTitle": "Appartement 7 pièces de 230 m²", "RentalPrice_EUR": "1250", "RentalAddrese": "Boulevard Malesherbes - Bat A, Paris", "RentalSize_m2": "230", "RentalRooms": "7", "RentalType": "Appartement", "Furnished": "Meublé", "Lat": "48.88615", "Lon": "2.30578"},
{"AdUrl": "https://www.lacartedescolocs.fr/colocations/fr/ile-de-france/paris/a/16bbz4", "AdTitle": "Appartement 3 pièces de 54 m²", "RentalPrice_EUR": "1050", "RentalAddrese": "Rue de la Roquette, Paris", "RentalSize_m2": "54", "RentalRooms": "3", "RentalFloor": "Duplex", "RentalType": "Appartement", "Furnished": "Meublé", "Lat": "48.85593", "Lon": "2.37527"},
{"AdUrl": "https://www.lacartedescolocs.fr/colocations/fr/ile-de-france/paris/a/jxyxm8", "AdTitle": "Appartement 9 pièces de 150 m²", "RentalPrice_EUR": "965", "RentalAddrese": "Rue des Cloys, Paris", "RentalSize_m2": "150", "RentalRooms": "9", "RentalType": "Appartement", "Furnished": "Meublé", "Lat": "48.89335", "Lon": "2.33661"},
{"AdUrl": "https://www.lacartedescolocs.fr/colocations/fr/ile-de-france/paris/a/k2lgrn", "AdTitle": "Appartement 4 pièces de 70 m²", "RentalPrice_EUR": "900", "RentalAddrese": "Villa Méridienne, Paris", "RentalSize_m2": "70", "RentalRooms": "4", "RentalType": "Appartement", "Furnished": "Meublé", "Lat": "48.8256", "Lon": "2.33577"},
{"AdUrl": "https://www.lacartedescolocs.fr/colocations/fr/ile-de-france/paris/a/fhf8p8", "AdTitle": "Duplex 5 pièces de 100 m²", "RentalPrice_EUR": "617", "RentalAddrese": "Rue Affre, Paris", "RentalSize_m2": "100", "RentalRooms": "5", "RentalFloor": "Rez-de-chaussée", "RentalType": "Duplex", "Lat": "48.8863", "Lon": "2.3556"},
{"AdUrl": "https://www.lacartedescolocs.fr/colocations/fr/ile-de-france/paris/a/f02r0j", "AdTitle": "Appartement 10 pièces de 280 m²", "RentalPrice_EUR": "1180", "RentalAddrese": "Avenue Mozart, Paris", "RentalSize_m2": "280", "RentalRooms": "10", "RentalType": "Appartement", "Furnished": "Meublé", "Lat": "48.85383", "Lon": "2.26889"},
{"AdUrl": "https://www.lacartedescolocs.fr/colocations/fr/ile-de-france/paris/a/7032gv", "AdTitle": "Appartement 6 pièces de 92 m²", "RentalPrice_EUR": "999", "RentalAddrese": "52 Rue du Borrégo,, Paris", "RentalSize_m2": "92", "RentalRooms": "6", "RentalType": "Appartement", "Furnished": "Meublé", "Lat": "48.8736", "Lon": "2.40259"},
{"AdUrl": "https://www.lacartedescolocs.fr/colocations/fr/ile-de-france/paris/a/rod5nt", "AdTitle": "Appartement 5 pièces de 100 m²", "RentalPrice_EUR": "850", "RentalAddrese": "Rue Guersant, Paris", "RentalSize_m2": "100", "RentalRooms": "5", "RentalType": "Appartement", "Furnished": "Meublé", "Lat": "48.88059", "Lon": "2.29003"},
{"AdUrl": "https://www.lacartedescolocs.fr/colocations/fr/ile-de-france/paris/a/ubr8xb", "AdTitle": "Appartement 3 pièces de 53 m²", "RentalPrice_EUR": "884", "RentalAddrese": "Rue Saint-Hippolyte, Paris", "RentalSize_m2": "53", "RentalRooms": "3", "RentalType": "Appartement", "Furnished": "Meublé", "Lat": "48.83607", "Lon": "2.34687"},
{"AdUrl": "https://www.lacartedescolocs.fr/colocations/fr/ile-de-france/paris/a/yzfaq4", "AdTitle": "Appartement 4 pièces de 70 m²", "RentalPrice_EUR": "750", "RentalAddrese": "Avenue Parmentier, Paris", "RentalSize_m2": "70", "RentalRooms": "4", "RentalType": "Appartement", "Lat": "48.85928", "Lon": "2.37964"},
{"AdUrl": "https://www.lacartedescolocs.fr/colocations/fr/ile-de-france/paris/a/45ctm7", "AdTitle": "Appartement 6 pièces de 78 m²", "RentalPrice_EUR": "935", "RentalAddrese": "Boulevard Victor, Paris", "RentalSize_m2": "78", "RentalRooms": "6", "RentalType": "Appartement", "Furnished": "Meublé", "Lat": "48.83338", "Lon": "2.28719"},
{"AdUrl": "https://www.lacartedescolocs.fr/colocations/fr/ile-de-france/paris/a/9ztp4g", "AdTitle": "Appartement 9 pièces de 140 m²", "RentalPrice_EUR": "1095", "RentalAddrese": "Rue du Buisson Saint-Louis, Paris", "RentalSize_m2": "140", "RentalRooms": "9", "RentalType": "Appartement", "Furnished": "Meublé", "Lat": "48.8729", "Lon": "2.3738"},
{"AdUrl": "https://www.lacartedescolocs.fr/colocations/fr/ile-de-france/paris/a/wsblrc", "AdTitle": "Appartement 4 pièces de 70 m²", "RentalPrice_EUR": "1025", "RentalAddrese": "Rue de l'Aqueduc, Paris", "RentalSize_m2": "70", "RentalRooms": "4", "RentalType": "Appartement", "Furnished": "Meublé", "Lat": "48.88015", "Lon": "2.35898"},
{"AdUrl": "https://www.lacartedescolocs.fr/colocations/fr/ile-de-france/paris/a/zc6uhx", "AdTitle": "Appartement 5 pièces de 130 m²", "RentalPrice_EUR": "1050", "RentalAddrese": "Rue Claude Lorrain, Paris", "RentalSize_m2": "130", "RentalRooms": "5", "RentalType": "Appartement", "Furnished": "Meublé", "Lat": "48.8414", "Lon": "2.26087"},
{"AdUrl": "https://www.lacartedescolocs.fr/colocations/fr/ile-de-france/paris/a/71gfhz", "AdTitle": "Appartement 3 pièces de 70 m²", "RentalPrice_EUR": "948", "RentalAddrese": "Rue Mathis, Paris", "RentalSize_m2": "70", "RentalRooms": "3", "RentalType": "Appartement", "Lat": "48.89104", "Lon": "2.37452"},
{"AdUrl": "https://www.lacartedescolocs.fr/colocations/fr/ile-de-france/paris/a/g5l5g4", "AdTitle": "Appartement 4 pièces de 80 m²", "RentalPrice_EUR": "1005", "RentalAddrese": "Rue d'Hautpoul, Paris", "RentalSize_m2": "80", "RentalRooms": "4", "RentalType": "Appartement", "Furnished": "Meublé", "Lat": "48.88266", "Lon": "2.38796"},
{"AdUrl": "https://www.lacartedescolocs.fr/colocations/fr/ile-de-france/paris/a/rolh1g", "AdTitle": "Appartement 5 pièces de 110 m²", "RentalPrice_EUR": "1035", "RentalAddrese": "Rue Lecourbe, Paris", "RentalSize_m2": "110", "RentalRooms": "5", "RentalType": "Appartement", "Furnished": "Meublé", "Lat": "48.84375", "Lon": "2.30561"},
{"AdUrl": "https://www.lacartedescolocs.fr/colocations/fr/ile-de-france/paris/a/14d4j6", "AdTitle": "Appartement 3 pièces de 42 m²", "RentalPrice_EUR": "450", "RentalAddrese": "Rue de la Main d'Or, Paris", "RentalSize_m2": "42", "RentalRooms": "3", "RentalType": "Appartement", "Furnished": "Meublé", "Lat": "48.85162", "Lon": "2.37844"},
{"AdUrl": "https://www.lacartedescolocs.fr/colocations/fr/ile-de-france/paris/a/2m8dvd", "AdTitle": "Appartement 4 pièces de 87 m²", "RentalPrice_EUR": "820", "RentalAddrese": "Avenue de Versailles, Paris", "RentalSize_m2": "87", "RentalRooms": "4", "RentalType": "Appartement", "Furnished": "Meublé", "Lat": "48.8497", "Lon": "2.27631"},
{"AdUrl": "https://www.lacartedescolocs.fr/colocations/fr/ile-de-france/paris/a/geogei", "AdTitle": "Appartement 8 pièces de 185 m²", "RentalPrice_EUR": "1174", "RentalAddrese": "39 Bis Blvd Ney,, Paris", "RentalSize_m2": "185", "RentalRooms": "8", "RentalType": "Appartement", "Furnished": "Meublé", "Lat": "48.89771", "Lon": "2.34351"},
{"AdUrl": "https://www.lacartedescolocs.fr/colocations/fr/ile-de-france/paris/a/fgorgu", "AdTitle": "Appartement 5 pièces de 75 m²", "RentalPrice_EUR": "975", "RentalAddrese": "Rue de Viroflay, Paris", "RentalSize_m2": "75", "RentalRooms": "5", "RentalType": "Appartement", "Lat": "48.84226", "Lon": "2.29961"},
{"AdUrl": "https://www.lacartedescolocs.fr/colocations/fr/ile-de-france/paris/a/yy282o", "AdTitle": "Appartement 3 pièces de 70 m²", "RentalPrice_EUR": "1245", "RentalAddrese": "Rue Louis Codet, Paris", "RentalSize_m2": "70", "RentalRooms": "3", "RentalType": "Appartement", "Furnished": "Meublé", "Lat": "48.85487", "Lon": "2.30912"},
{"AdUrl": "https://www.lacartedescolocs.fr/colocations/fr/ile-de-france/paris/a/e2i173", "AdTitle": "Appartement 4 pièces de 80 m²", "RentalPrice_EUR": "1235", "RentalAddrese": "Rue du Dr Finlay, Paris", "RentalSize_m2": "80", "RentalRooms": "4", "RentalType": "Appartement", "Furnished": "Meublé", "Lat": "48.85226", "Lon": "2.28782"},
{"AdUrl": "https://www.lacartedescolocs.fr/colocations/fr/ile-de-france/paris/a/oh70kl", "AdTitle": "Appartement 3 pièces de 50 m²", "RentalPrice_EUR": "1065", "RentalAddrese": "Cité Condorcet, Paris", "RentalSize_m2": "50", "RentalRooms": "3", "RentalType": "Appartement", "Furnished": "Meublé", "Lat": "48.8795", "Lon": "2.34466"},
{"AdUrl": "https://www.lacartedescolocs.fr/colocations/fr/ile-de-france/paris/a/hqth36", "AdTitle": "Appartement 3 pièces de 45 m²", "RentalPrice_EUR": "715", "RentalAddrese": "Rue de la Chine, Paris", "RentalSize_m2": "45", "RentalRooms": "3", "RentalType": "Appartement", "Furnished": "Meublé", "Lat": "48.86783", "Lon": "2.39835"},
{"AdUrl": "https://www.lacartedescolocs.fr/colocations/fr/ile-de-france/paris/a/mvnwr1", "AdTitle": "Appartement 4 pièces de 72 m²", "RentalPrice_EUR": "680", "RentalAddrese": "Avenue Daumesnil, Paris", "RentalSize_m2": "72", "RentalRooms": "4", "RentalType": "Appartement", "Furnished": "Meublé", "Lat": "48.84131", "Lon": "2.38882"},
{"AdUrl": "https://www.lacartedescolocs.fr/colocations/fr/ile-de-france/paris/a/vtnqae", "AdTitle": "Maison 10 pièces de 315 m²", "RentalPrice_EUR": "1190", "RentalAddrese": "Avenue du Général Leclerc, Paris", "RentalSize_m2": "315", "RentalRooms": "10", "RentalType": "Maison", "Furnished": "Meublé", "Lat": "48.82552", "Lon": "2.32634"},
{"AdUrl": "https://www.lacartedescolocs.fr/colocations/fr/ile-de-france/paris/a/nvrnpa", "AdTitle": "Appartement 5 pièces de 110 m²", "RentalPrice_EUR": "1270", "RentalAddrese": "Avenue de l'Opéra, Paris", "RentalSize_m2": "110", "RentalRooms": "5", "RentalType": "Appartement", "Furnished": "Meublé", "Lat": "48.86795", "Lon": "2.33319"},
{"AdUrl": "https://www.lacartedescolocs.fr/colocations/fr/ile-de-france/paris/a/xbdyn1", "AdTitle": "Appartement 1 pièce de 515 m²", "RentalPrice_EUR": "1420", "RentalAddrese": "5/7 Impasse des Deux Cousins,, Paris", "RentalSize_m2": "515", "RentalRooms": "1", "RentalType": "Appartement", "Furnished": "Meublé", "Lat": "48.88473", "Lon": "2.29341"},
{"AdUrl": "https://www.lacartedescolocs.fr/colocations/fr/ile-de-france/paris/a/rusgg2", "AdTitle": "Appartement 1 pièce de 407 m²", "RentalPrice_EUR": "1690", "RentalAddrese": "42 Rue de Cambronne,, Paris", "RentalSize_m2": "407", "RentalRooms": "1", "RentalType": "Appartement", "Furnished": "Meublé", "Lat": "48.84537", "Lon": "2.30153"},
{"AdUrl": "https://www.lacartedescolocs.fr/colocations/fr/ile-de-france/paris/a/1878sh", "AdTitle": "Appartement 4 pièces de 80 m²", "RentalPrice_EUR": "990", "RentalAddrese": "Rue Michel Ange, Paris", "RentalSize_m2": "80", "RentalRooms": "4", "RentalType": "Appartement", "Furnished": "Meublé", "Lat": "48.84456", "Lon": "2.2611"},
{"AdUrl": "https://www.lacartedescolocs.fr/colocations/fr/ile-de-france/paris/a/tm66dh", "AdTitle": "Appartement 3 pièces de 65 m²", "RentalPrice_EUR": "715", "RentalAddrese": "Rue de la Marseillaise, Paris", "RentalSize_m2": "65", "RentalRooms": "3", "RentalType": "Appartement", "Furnished": "Meublé", "Lat": "48.88873", "Lon": "2.39808"},
{"AdUrl": "https://www.lacartedescolocs.fr/colocations/fr/ile-de-france/paris/a/wlvpip", "AdTitle": "Appartement 4 pièces de 80 m²", "RentalPrice_EUR": "925", "RentalAddrese": "Rue Vaugelas, Paris", "RentalSize_m2": "80", "RentalRooms": "4", "RentalType": "Appartement", "Furnished": "Meublé", "Lat": "48.83334", "Lon": "2.29257"},
{"AdUrl": "https://www.lacartedescolocs.fr/colocations/fr/ile-de-france/paris/a/jafc9k", "AdTitle": "Appartement 3 pièces de 50 m²", "RentalPrice_EUR": "700", "RentalAddrese": "Rue de la Cour des Noues, Paris", "RentalSize_m2": "50", "RentalRooms": "3", "RentalType": "Appartement", "Furnished": "Meublé", "Lat": "48.86358", "Lon": "2.40352"},
{"AdUrl": "https://www.lacartedescolocs.fr/colocations/fr/ile-de-france/paris/a/kz4ndj", "AdTitle": "Appartement 5 pièces de 110 m²", "RentalPrice_EUR": "1385", "RentalAddrese": "Avenue de l'Opéra, Paris", "RentalSize_m2": "110", "RentalRooms": "5", "RentalType": "Appartement", "Furnished": "Meublé", "Lat": "48.86795", "Lon": "2.33319"},
{"AdUrl": "https://www.lacartedescolocs.fr/colocations/fr/ile-de-france/paris/a/0b3yfb", "AdTitle": "Appartement 6 pièces de 100 m²", "RentalPrice_EUR": "950", "RentalAddrese": "Rue Saint-Luc, Paris", "RentalSize_m2": "100", "RentalRooms": "6", "RentalFloor": "5ème étage", "RentalType": "Appartement", "Furnished": "Meublé", "Lat": "48.88632", "Lon": "2.3541"},
{"AdUrl": "https://www.lacartedescolocs.fr/colocations/fr/ile-de-france/paris/a/zzefbe", "AdTitle": "Appartement 3 pièces de 70 m²", "RentalPrice_EUR": "882", "RentalAddrese": "Rue Félicien David, Paris", "RentalSize_m2": "70", "RentalRooms": "3", "RentalType": "Appartement", "Furnished": "Meublé", "Lat": "48.84946", "Lon": "2.27414"},
{"AdUrl": "https://www.lacartedescolocs.fr/colocations/fr/ile-de-france/paris/a/u5ciya", "AdTitle": "Appartement 4 pièces de 45 m²", "RentalPrice_EUR": "723", "RentalAddrese": "Rue du Dessous des Berges, Paris", "RentalSize_m2": "45", "RentalRooms": "4", "RentalFloor": "4ème étage", "RentalType": "Appartement", "Furnished": "Meublé", "Lat": "48.82474", "Lon": "2.37517"},
{"AdUrl": "https://www.lacartedescolocs.fr/colocations/fr/ile-de-france/paris/a/ar1xq9", "AdTitle": "Appartement 5 pièces de 110 m²", "RentalPrice_EUR": "1070", "RentalAddrese": "Rue des Morillons, Paris", "RentalSize_m2": "110", "RentalRooms": "5", "RentalType": "Appartement", "Furnished": "Meublé", "Lat": "48.83203", "Lon": "2.30496"},
{"AdUrl": "https://www.lacartedescolocs.fr/colocations/fr/ile-de-france/paris/a/zfkhax", "AdTitle": "Appartement 5 pièces de 110 m²", "RentalPrice_EUR": "1050", "RentalAddrese": "Rue des Morillons, Paris", "RentalSize_m2": "110", "RentalRooms": "5", "RentalType": "Appartement", "Furnished": "Meublé", "Lat": "48.83203", "Lon": "2.30496"},
{"AdUrl": "https://www.lacartedescolocs.fr/colocations/fr/ile-de-france/paris/a/8jiwtq", "AdTitle": "Appartement 4 pièces de 78 m²", "RentalPrice_EUR": "582", "RentalAddrese": "Allée Lydia Becker, Paris", "RentalSize_m2": "78", "RentalRooms": "4", "RentalFloor": "14ème étage", "RentalType": "Appartement", "Lat": "48.89715", "Lon": "2.3572"},
{"AdUrl": "https://www.lacartedescolocs.fr/colocations/fr/ile-de-france/paris/a/z89x1v", "AdTitle": "Appartement 3 pièces de 50 m²", "RentalPrice_EUR": "869", "RentalAddrese": "Rue Roli, Paris", "RentalSize_m2": "50", "RentalRooms": "3", "RentalType": "Appartement", "Furnished": "Meublé", "Lat": "48.82047", "Lon": "2.34196"},
{"AdUrl": "https://www.lacartedescolocs.fr/colocations/fr/ile-de-france/paris/a/aclvvb", "AdTitle": "Appartement 3 pièces de 42 m²", "RentalPrice_EUR": "500", "RentalAddrese": "Rue Ernest Cresson, Paris", "RentalSize_m2": "42", "RentalRooms": "3", "RentalType": "Appartement", "Furnished": "Meublé", "Lat": "48.8327", "Lon": "2.32922"},
{"AdUrl": "https://www.lacartedescolocs.fr/colocations/fr/ile-de-france/paris/a/zvee1f", "AdTitle": "Appartement", "RentalPrice_EUR": "975", "RentalAddrese": "Paris", "RentalType": "Appartement", "Lat": "48.8362", "Lon": "2.3042"},
{"AdUrl": "https://www.lacartedescolocs.fr/colocations/fr/ile-de-france/paris/a/whvz4d", "AdTitle": "Appartement 5 pièces de 80 m²", "RentalPrice_EUR": "1200", "RentalAddrese": "Boulevard de Clichy, Paris", "RentalSize_m2": "80", "RentalRooms": "5", "RentalFloor": "1er étage", "RentalType": "Appartement", "Furnished": "Meublé", "Lat": "48.88253", "Lon": "2.33816"},
{"AdUrl": "https://www.lacartedescolocs.fr/colocations/fr/ile-de-france/paris/a/l66i26", "AdTitle": "Appartement 1 pièce de 200 m²", "RentalPrice_EUR": "1383", "RentalAddrese": "24 Rue du 4 Septembre,, Paris", "RentalSize_m2": "200", "RentalRooms": "1", "RentalType": "Appartement", "Furnished": "Meublé", "Lat": "48.86997", "Lon": "2.33517"},
{"AdUrl": "https://www.lacartedescolocs.fr/colocations/fr/ile-de-france/paris/a/kx9hb7", "AdTitle": "Appartement 5 pièces de 82 m²", "RentalPrice_EUR": "350", "RentalAddrese": "Rue de Liège, Saint-Brieuc", "RentalSize_m2": "82", "RentalRooms": "5", "RentalType": "Appartement", "Furnished": "Meublé", "Lat": "48.51743", "Lon": "-2.74287"},
{"AdUrl": "https://www.lacartedescolocs.fr/colocations/fr/ile-de-france/paris/a/yoicu4", "AdTitle": "Appartement 6 pièces de 150 m²", "RentalPrice_EUR": "1165", "RentalAddrese": "Rue Juge, Paris", "RentalSize_m2": "150", "RentalRooms": "6", "RentalType": "Appartement", "Furnished": "Meublé", "Lat": "48.85005", "Lon": "2.2923"},
{"AdUrl": "https://www.lacartedescolocs.fr/colocations/fr/ile-de-france/paris/a/fpp97a", "AdTitle": "Appartement 9 pièces de 140 m²", "RentalPrice_EUR": "1015", "RentalAddrese": "Rue du Buisson Saint-Louis, Paris", "RentalSize_m2": "140", "RentalRooms": "9", "RentalType": "Appartement", "Furnished": "Meublé", "Lat": "48.8729", "Lon": "2.3738"},
{"AdUrl": "https://www.lacartedescolocs.fr/colocations/fr/ile-de-france/paris/a/iwteom", "AdTitle": "Appartement 5 pièces de 50 m²", "RentalPrice_EUR": "740", "RentalAddrese": "Rue André Antoine, Paris", "RentalSize_m2": "50", "RentalRooms": "5", "RentalType": "Appartement", "Furnished": "Meublé", "Lat": "48.88268", "Lon": "2.33738"},
{"AdUrl": "https://www.lacartedescolocs.fr/colocations/fr/ile-de-france/paris/a/yazxcv", "AdTitle": "Appartement 4 pièces de 90 m²", "RentalPrice_EUR": "1000", "RentalAddrese": "Boulevard Murat, Paris", "RentalSize_m2": "90", "RentalRooms": "4", "RentalType": "Appartement", "Furnished": "Meublé", "Lat": "48.83833", "Lon": "2.26294"},
{"AdUrl": "https://www.lacartedescolocs.fr/colocations/fr/ile-de-france/paris/a/swqcco", "AdTitle": "Appartement 5 pièces de 90 m²", "RentalPrice_EUR": "950", "RentalAddrese": "Rue Bobillot, Paris", "RentalSize_m2": "90", "RentalRooms": "5", "RentalType": "Appartement", "Furnished": "Meublé", "Lat": "48.82544", "Lon": "2.34982"},
{"AdUrl": "https://www.lacartedescolocs.fr/colocations/fr/ile-de-france/paris/a/xinzcw", "AdTitle": "Appartement 3 pièces de 65 m²", "RentalPrice_EUR": "945", "RentalAddrese": "Avenue de la République, Paris", "RentalSize_m2": "65", "RentalRooms": "3", "RentalType": "Appartement", "Furnished": "Meublé", "Lat": "48.86517", "Lon": "2.37427"},
{"AdUrl": "https://www.lacartedescolocs.fr/colocations/fr/ile-de-france/paris/a/44bzcl", "AdTitle": "Appartement 3 pièces de 56 m²", "RentalPrice_EUR": "850", "RentalAddrese": "Paris", "RentalSize_m2": "56", "RentalRooms": "3", "RentalType": "Appartement", "Furnished": "Meublé", "Lat": "48.8368", "Lon": "2.40763"},
{"AdUrl": "https://www.lacartedescolocs.fr/colocations/fr/ile-de-france/paris/a/i9ce88", "AdTitle": "Appartement 4 pièces de 60 m²", "RentalPrice_EUR": "1000", "RentalAddrese": "Rue du Chemin Vert, Paris", "RentalSize_m2": "60", "RentalRooms": "4", "RentalType": "Appartement", "Furnished": "Meublé", "Lat": "48.86007", "Lon": "2.37787"},
{"AdUrl": "https://www.lacartedescolocs.fr/colocations/fr/ile-de-france/paris/a/008bnp", "AdTitle": "Appartement 6 pièces de 81 m²", "RentalPrice_EUR": "985", "RentalAddrese": "Boulevard Murat, Paris", "RentalSize_m2": "81", "RentalRooms": "6", "RentalFloor": "4ème étage", "RentalType": "Appartement", "Furnished": "Meublé", "Lat": "48.83739", "Lon": "2.25889"},
{"AdUrl": "https://www.lacartedescolocs.fr/colocations/fr/ile-de-france/paris/a/0u3vlf", "AdTitle": "Appartement", "RentalPrice_EUR": "860", "RentalAddrese": "Paris", "RentalType": "Appartement", "Lat": "48.828", "Lon": "2.32639"},
{"AdUrl": "https://www.lacartedescolocs.fr/colocations/fr/ile-de-france/paris/a/y4bg18", "AdTitle": "Appartement 5 pièces de 120 m²", "RentalPrice_EUR": "1050", "RentalAddrese": "Rue Lecourbe, Paris", "RentalSize_m2": "120", "RentalRooms": "5", "RentalType": "Appartement", "Furnished": "Meublé", "Lat": "48.84375", "Lon": "2.30561"},
{"AdUrl": "https://www.lacartedescolocs.fr/colocations/fr/ile-de-france/paris/a/8juwkz", "AdTitle": "Appartement 4 pièces de 93 m²", "RentalPrice_EUR": "1010", "RentalAddrese": "Rue Blomet, Paris", "RentalSize_m2": "93", "RentalRooms": "4", "RentalType": "Appartement", "Furnished": "Meublé", "Lat": "48.83755", "Lon": "2.29454"},
{"AdUrl": "https://www.lacartedescolocs.fr/colocations/fr/ile-de-france/paris/a/3zlp2o", "AdTitle": "Appartement 4 pièces de 85 m²", "RentalPrice_EUR": "880", "RentalAddrese": "Paris", "RentalSize_m2": "85", "RentalRooms": "4", "RentalType": "Appartement", "Lat": "48.8714", "Lon": "2.35064"},
{"AdUrl": "https://www.lacartedescolocs.fr/colocations/fr/ile-de-france/paris/a/4bfjpj", "AdTitle": "Appartement 4 pièces de 100 m²", "RentalPrice_EUR": "1073", "RentalAddrese": "Rue de Rivoli, Paris", "RentalSize_m2": "100", "RentalRooms": "4", "RentalType": "Appartement", "Lat": "48.85562", "Lon": "2.35947"},
{"AdUrl": "https://www.lacartedescolocs.fr/colocations/fr/ile-de-france/paris/a/eydbhr", "AdTitle": "Appartement 6 pièces de 150 m²", "RentalPrice_EUR": "1180", "RentalAddrese": "Rue Juge, Paris", "RentalSize_m2": "150", "RentalRooms": "6", "RentalType": "Appartement", "Furnished": "Meublé", "Lat": "48.85005", "Lon": "2.2923"},
{"AdUrl": "https://www.lacartedescolocs.fr/colocations/fr/ile-de-france/paris/a/19aw44", "AdTitle": "Appartement 5 pièces de 65 m²", "RentalPrice_EUR": "830", "RentalAddrese": "Rue des Pyrénées, Paris", "RentalSize_m2": "65", "RentalRooms": "5", "RentalType": "Appartement", "Furnished": "Meublé", "Lat": "48.86749", "Lon": "2.39662"},
{"AdUrl": "https://www.lacartedescolocs.fr/colocations/fr/ile-de-france/paris/a/d8sp5o", "AdTitle": "Appartement 5 pièces de 85 m²", "RentalPrice_EUR": "840", "RentalAddrese": "Rue Didot, Paris", "RentalSize_m2": "85", "RentalRooms": "5", "RentalType": "Appartement", "Lat": "48.82961", "Lon": "2.31775"},
{"AdUrl": "https://www.lacartedescolocs.fr/colocations/fr/ile-de-france/paris/a/ebmy54", "AdTitle": "Maison 7 pièces de 130 m²", "RentalPrice_EUR": "800", "RentalAddrese": "Rue de la Duée, Paris", "RentalSize_m2": "130", "RentalRooms": "7", "RentalType": "Maison", "Furnished": "Meublé", "Lat": "48.87215", "Lon": "2.39758"},
{"AdUrl": "https://www.lacartedescolocs.fr/colocations/fr/ile-de-france/paris/a/0al1mn", "AdTitle": "Appartement 3 pièces de 60 m²", "RentalPrice_EUR": "950", "RentalAddrese": "Rue de Bagnolet, Paris", "RentalSize_m2": "60", "RentalRooms": "3", "RentalFloor": "Rez-de-chaussée", "RentalType": "Appartement", "Furnished": "Meublé", "Lat": "48.85789", "Lon": "2.4"},
{"AdUrl": "https://www.lacartedescolocs.fr/colocations/fr/ile-de-france/paris/a/vvfq0e", "AdTitle": "Appartement 7 pièces de 180 m²", "RentalPrice_EUR": "1280", "RentalAddrese": "Boulevard Malesherbes, Paris", "RentalSize_m2": "180", "RentalRooms": "7", "RentalType": "Appartement", "Furnished": "Meublé", "Lat": "48.88604", "Lon": "2.30549"},
{"AdUrl": "https://www.lacartedescolocs.fr/colocations/fr/ile-de-france/paris/a/ypdst6", "AdTitle": "Appartement 4 pièces de 88 m²", "RentalPrice_EUR": "910", "RentalAddrese": "Rue Archereau, Paris", "RentalSize_m2": "88", "RentalRooms": "4", "RentalFloor": "3ème étage", "RentalType": "Appartement", "Furnished": "Meublé", "Lat": "48.89198", "Lon": "2.37468"},
{"AdUrl": "https://www.lacartedescolocs.fr/colocations/fr/ile-de-france/paris/a/2qk1bh", "AdTitle": "Appartement 4 pièces de 90 m²", "RentalPrice_EUR": "842", "RentalAddrese": "Avenue Gambetta, Paris", "RentalSize_m2": "90", "RentalRooms": "4", "RentalType": "Appartement", "Furnished": "Meublé", "Lat": "48.86483", "Lon": "2.39841"},
{"AdUrl": "https://www.lacartedescolocs.fr/colocations/fr/ile-de-france/paris/a/pxebsz", "AdTitle": "Appartement 6 pièces de 88 m²", "RentalPrice_EUR": "995", "RentalAddrese": "Rue de Vouillé, Paris", "RentalSize_m2": "88", "RentalRooms": "6", "RentalType": "Appartement", "Furnished": "Meublé", "Lat": "48.83508", "Lon": "2.30331"},
{"AdUrl": "https://www.lacartedescolocs.fr/colocations/fr/ile-de-france/paris/a/vhwwgv", "AdTitle": "Appartement 3 pièces de 60 m²", "RentalPrice_EUR": "985", "RentalAddrese": "Rue des Cloys, Paris", "RentalSize_m2": "60", "RentalRooms": "3", "RentalType": "Appartement", "Furnished": "Meublé", "Lat": "48.89335", "Lon": "2.33661"},
{"AdUrl": "https://www.lacartedescolocs.fr/colocations/fr/ile-de-france/paris/a/gl2v1m", "AdTitle": "Appartement 3 pièces de 73 m²", "RentalPrice_EUR": "865", "RentalAddrese": "Rue Hippolyte Maindron, Paris", "RentalSize_m2": "73", "RentalRooms": "3", "RentalType": "Appartement", "Furnished": "Meublé", "Lat": "48.83148", "Lon": "2.32153"},
{"AdUrl": "https://www.lacartedescolocs.fr/colocations/fr/ile-de-france/paris/a/2crvc7", "AdTitle": "Appartement 3 pièces de 40 m²", "RentalPrice_EUR": "750", "RentalAddrese": "Rue des Pyrénées, Paris", "RentalSize_m2": "40", "RentalRooms": "3", "RentalType": "Appartement", "Furnished": "Meublé", "Lat": "48.85483", "Lon": "2.40536"},
{"AdUrl": "https://www.lacartedescolocs.fr/colocations/fr/ile-de-france/paris/a/4hl36r", "AdTitle": "Appartement 3 pièces de 45 m²", "RentalPrice_EUR": "950", "RentalAddrese": "Rue de Montreuil, Paris", "RentalSize_m2": "45", "RentalRooms": "3", "RentalType": "Appartement", "Furnished": "Meublé", "Lat": "48.85051", "Lon": "2.39278"},
{"AdUrl": "https://www.lacartedescolocs.fr/colocations/fr/ile-de-france/paris/a/zp141w", "AdTitle": "Appartement 5 pièces de 110 m²", "RentalPrice_EUR": "1040", "RentalAddrese": "Rue Lecourbe, Paris", "RentalSize_m2": "110", "RentalRooms": "5", "RentalType": "Appartement", "Furnished": "Meublé", "Lat": "48.84373", "Lon": "2.3057"},
{"AdUrl": "https://www.lacartedescolocs.fr/colocations/fr/ile-de-france/paris/a/ahings", "AdTitle": "Appartement 2 pièces de 58 m²", "RentalPrice_EUR": "750", "RentalAddrese": "Quai de la Rapée, Paris", "RentalSize_m2": "58", "RentalRooms": "2", "RentalType": "Appartement", "Furnished": "Meublé", "Lat": "48.84379", "Lon": "2.37004"},
{"AdUrl": "https://www.lacartedescolocs.fr/colocations/fr/ile-de-france/paris/a/599sbi", "AdTitle": "Appartement 8 pièces de 55 m²", "RentalPrice_EUR": "1020", "RentalAddrese": "Avenue Félix Faure, Paris", "RentalSize_m2": "55", "RentalRooms": "8", "RentalType": "Appartement", "Furnished": "Meublé", "Lat": "48.83843", "Lon": "2.28108"},
{"AdUrl": "https://www.lacartedescolocs.fr/colocations/fr/ile-de-france/paris/a/1mq7gr", "AdTitle": "Appartement 4 pièces de 90 m²", "RentalPrice_EUR": "1045", "RentalAddrese": "Rue de Saussure, Paris", "RentalSize_m2": "90", "RentalRooms": "4", "RentalType": "Appartement", "Furnished": "Meublé", "Lat": "48.88962", "Lon": "2.30709"},
{"AdUrl": "https://www.lacartedescolocs.fr/colocations/fr/ile-de-france/paris/a/mfjsiu", "AdTitle": "Appartement 5 pièces", "RentalPrice_EUR": "975", "RentalAddrese": "Paris", "RentalRooms": "5", "RentalType": "Appartement", "Lat": "48.8468", "Lon": "2.37877"},
{"AdUrl": "https://www.lacartedescolocs.fr/colocations/fr/ile-de-france/paris/a/5e5gl5", "AdTitle": "Appartement 3 pièces de 75 m²", "RentalPrice_EUR": "2500", "RentalAddrese": "Avenue de Flandre, Paris", "RentalSize_m2": "75", "RentalRooms": "3", "RentalType": "Appartement", "Furnished": "Meublé", "Lat": "48.85342", "Lon": "2.37707"},
{"AdUrl": "https://www.lacartedescolocs.fr/colocations/fr/ile-de-france/paris/a/8msdn2", "AdTitle": "Appartement 5 pièces de 83 m²", "RentalPrice_EUR": "845", "RentalAddrese": "Paris", "RentalSize_m2": "83", "RentalRooms": "5", "RentalType": "Appartement", "Furnished": "Meublé", "Lat": "48.83538", "Lon": "2.40612"},
{"AdUrl": "https://www.lacartedescolocs.fr/colocations/fr/ile-de-france/paris/a/e9rdi0", "AdTitle": "Appartement 4 pièces de 80 m²", "RentalPrice_EUR": "882", "RentalAddrese": "Rue de Provence, Paris", "RentalSize_m2": "80", "RentalRooms": "4", "RentalType": "Appartement", "Furnished": "Meublé", "Lat": "48.87422", "Lon": "2.33096"},
{"AdUrl": "https://www.lacartedescolocs.fr/colocations/fr/ile-de-france/paris/a/ve4msu", "AdTitle": "Maison 10 pièces de 285 m²", "RentalPrice_EUR": "1020", "RentalAddrese": "Villa Albert Robida, Paris", "RentalSize_m2": "285", "RentalRooms": "10", "RentalType": "Maison", "Furnished": "Meublé", "Lat": "48.87913", "Lon": "2.39102"},
{"AdUrl": "https://www.lacartedescolocs.fr/colocations/fr/ile-de-france/paris/a/m4plwy", "AdTitle": "Appartement 4 pièces de 55 m²", "RentalPrice_EUR": "950", "RentalAddrese": "Rue du Terrage, Paris", "RentalSize_m2": "55", "RentalRooms": "4", "RentalType": "Appartement", "Lat": "48.87747", "Lon": "2.36266"},
{"AdUrl": "https://www.lacartedescolocs.fr/colocations/fr/ile-de-france/paris/a/zm5z2z", "AdTitle": "Appartement 3 pièces de 68 m²", "RentalPrice_EUR": "800", "RentalAddrese": "Rue Etienne Dolet, Paris", "RentalSize_m2": "68", "RentalRooms": "3", "RentalType": "Appartement", "Furnished": "Meublé", "Lat": "48.86782", "Lon": "2.38426"},
{"AdUrl": "https://www.lacartedescolocs.fr/colocations/fr/ile-de-france/paris/a/d8v8ji", "AdTitle": "Appartement 5 pièces de 130 m²", "RentalPrice_EUR": "1008", "RentalAddrese": "Rue d'Annam, Paris", "RentalSize_m2": "130", "RentalRooms": "5", "RentalFloor": "Rez-de-chaussée", "RentalType": "Appartement", "Furnished": "Meublé", "Lat": "48.86731", "Lon": "2.3945"},
{"AdUrl": "https://www.lacartedescolocs.fr/colocations/fr/ile-de-france/paris/a/9objv4", "AdTitle": "Appartement 5 pièces de 77 m²", "RentalPrice_EUR": "1080", "RentalAddrese": "Rue Oudinot, Paris", "RentalSize_m2": "77", "RentalRooms": "5", "RentalFloor": "1er étage", "RentalType": "Appartement", "Furnished": "Meublé", "Lat": "48.8506", "Lon": "2.31901"},
{"AdUrl": "https://www.lacartedescolocs.fr/colocations/fr/ile-de-france/paris/a/s20nim", "AdTitle": "Appartement 3 pièces de 75 m²", "RentalPrice_EUR": "845", "RentalAddrese": "Allée Colette Heilbronner, Paris", "RentalSize_m2": "75", "RentalRooms": "3", "RentalFloor": "2ème étage", "RentalType": "Appartement", "Furnished": "Meublé", "Lat": "48.89264", "Lon": "2.31014"},
{"AdUrl": "https://www.lacartedescolocs.fr/colocations/fr/ile-de-france/paris/a/k81a35", "AdTitle": "Appartement 4 pièces de 90 m²", "RentalPrice_EUR": "990", "RentalAddrese": "Rue de Vouillé, Paris", "RentalSize_m2": "90", "RentalRooms": "4", "RentalType": "Appartement", "Furnished": "Meublé", "Lat": "48.83496", "Lon": "2.30372"},
{"AdUrl": "https://www.lacartedescolocs.fr/colocations/fr/ile-de-france/paris/a/1bg9qh", "AdTitle": "Appartement 3 pièces de 70 m²", "RentalPrice_EUR": "1045", "RentalAddrese": "Rue de Saussure, Paris", "RentalSize_m2": "70", "RentalRooms": "3", "RentalType": "Appartement", "Furnished": "Meublé", "Lat": "48.88962", "Lon": "2.30709"},
{"AdUrl": "https://www.lacartedescolocs.fr/colocations/fr/ile-de-france/paris/a/d9b4md", "AdTitle": "Maison 10 pièces de 180 m²", "RentalPrice_EUR": "1390", "RentalAddrese": "Rue des Lilas, Paris", "RentalSize_m2": "180", "RentalRooms": "10", "RentalType": "Maison", "Furnished": "Meublé", "Lat": "48.88069", "Lon": "2.39688"},
{"AdUrl": "https://www.lacartedescolocs.fr/colocations/fr/ile-de-france/paris/a/f7vzch", "AdTitle": "Appartement 6 pièces de 130 m²", "RentalPrice_EUR": "730", "RentalAddrese": "Rue Bleue, Paris", "RentalSize_m2": "130", "RentalRooms": "6", "RentalType": "Appartement", "Furnished": "Meublé", "Lat": "48.8758", "Lon": "2.34681"},
{"AdUrl": "https://www.lacartedescolocs.fr/colocations/fr/ile-de-france/paris/a/2yh4bd", "AdTitle": "Appartement 5 pièces de 90 m²", "RentalPrice_EUR": "1135", "RentalAddrese": "Rue le Marois, Paris", "RentalSize_m2": "90", "RentalRooms": "5", "RentalType": "Appartement", "Furnished": "Meublé", "Lat": "48.83756", "Lon": "2.25895"},
{"AdUrl": "https://www.lacartedescolocs.fr/colocations/fr/ile-de-france/paris/a/5bpium", "AdTitle": "Appartement 3 pièces de 36 m²", "RentalPrice_EUR": "710", "RentalAddrese": "Rue Didot, Paris", "RentalSize_m2": "36", "RentalRooms": "3", "RentalType": "Appartement", "Furnished": "Meublé", "Lat": "48.83239", "Lon": "2.3204"},
{"AdUrl": "https://www.lacartedescolocs.fr/colocations/fr/ile-de-france/paris/a/amozxb", "AdTitle": "Appartement 6 pièces de 120 m²", "RentalPrice_EUR": "1005", "RentalAddrese": "Rue de Saintonge, Paris", "RentalSize_m2": "120", "RentalRooms": "6", "RentalFloor": "3ème étage", "RentalType": "Appartement", "Furnished": "Meublé", "Lat": "48.86196", "Lon": "2.36279"},
{"AdUrl": "https://www.lacartedescolocs.fr/colocations/fr/ile-de-france/paris/a/snqzz6", "AdTitle": "Appartement 5 pièces de 70 m²", "RentalPrice_EUR": "821", "RentalAddrese": "Rue Gazan, Paris", "RentalSize_m2": "70", "RentalRooms": "5", "RentalType": "Appartement", "Lat": "48.82298", "Lon": "2.34048"},
{"AdUrl": "https://www.lacartedescolocs.fr/colocations/fr/ile-de-france/paris/a/y3lkzi", "AdTitle": "Appartement 1 pièce de 380 m²", "RentalPrice_EUR": "1760", "RentalAddrese": "42 Rue de Cambronne,, Paris", "RentalSize_m2": "380", "RentalRooms": "1", "RentalType": "Appartement", "Furnished": "Meublé", "Lat": "48.84537", "Lon": "2.30153"},
{"AdUrl": "https://www.lacartedescolocs.fr/colocations/fr/ile-de-france/paris/a/n5l8zs", "AdTitle": "Appartement 1 pièce de 25 m²", "RentalPrice_EUR": "1390", "RentalAddrese": "Rue Tisserand, Paris", "RentalSize_m2": "25", "RentalRooms": "1", "RentalType": "Appartement", "Furnished": "Meublé", "Lat": "48.84039", "Lon": "2.28513"},
{"AdUrl": "https://www.lacartedescolocs.fr/colocations/fr/ile-de-france/paris/a/29b60y", "AdTitle": "Appartement 3 pièces de 60 m²", "RentalPrice_EUR": "881", "RentalAddrese": "Rue Duranton, Paris", "RentalSize_m2": "60", "RentalRooms": "3", "RentalType": "Appartement", "Lat": "48.83837", "Lon": "2.28875"},
{"AdUrl": "https://www.lacartedescolocs.fr/colocations/fr/ile-de-france/paris/a/r047v7", "AdTitle": "Appartement 4 pièces de 80 m²", "RentalPrice_EUR": "715", "RentalAddrese": "Avenue de Flandre, Paris", "RentalSize_m2": "80", "RentalRooms": "4", "RentalType": "Appartement", "Lat": "48.88507", "Lon": "2.37029"},
{"AdUrl": "https://www.lacartedescolocs.fr/colocations/fr/ile-de-france/paris/a/ko747j", "AdTitle": "Appartement 3 pièces de 56 m²", "RentalPrice_EUR": "900", "RentalAddrese": "Boulevard de Strasbourg, Paris", "RentalSize_m2": "56", "RentalRooms": "3", "RentalType": "Appartement", "Lat": "48.87396", "Lon": "2.35709"},
{"AdUrl": "https://www.lacartedescolocs.fr/colocations/fr/ile-de-france/paris/a/0vhkcg", "AdTitle": "Duplex 5 pièces de 120 m²", "RentalPrice_EUR": "890", "RentalAddrese": "Boulevard Sérurier, Paris", "RentalSize_m2": "120", "RentalRooms": "5", "RentalFloor": "Rez-de-chaussée", "RentalType": "Duplex", "Furnished": "Meublé", "Lat": "48.88819", "Lon": "2.39585"},
{"AdUrl": "https://www.lacartedescolocs.fr/colocations/fr/ile-de-france/paris/a/x5qryo", "AdTitle": "Appartement 1 pièce de 35 m²", "RentalPrice_EUR": "850", "RentalAddrese": "Rue Coysevox, Paris", "RentalSize_m2": "35", "RentalRooms": "1", "RentalType": "Appartement", "Furnished": "Meublé", "Lat": "48.89086", "Lon": "2.32934"},
{"AdUrl": "https://www.lacartedescolocs.fr/colocations/fr/ile-de-france/paris/a/eubfzq", "AdTitle": "Appartement de 8 m²", "RentalPrice_EUR": "1000", "RentalAddrese": "Paris", "RentalSize_m2": "8", "RentalType": "Appartement", "Lat": "48.8447", "Lon": "2.29655"},
{"AdUrl": "https://www.lacartedescolocs.fr/colocations/fr/ile-de-france/paris/a/425sis", "AdTitle": "Appartement 22 pièces de 414 m²", "RentalPrice_EUR": "995", "RentalAddrese": "Rue des Montiboeufs, Paris", "RentalSize_m2": "414", "RentalRooms": "22", "RentalType": "Appartement", "Furnished": "Meublé", "Lat": "2.40392", "Lon": "48.8673"},
{"AdUrl": "https://www.lacartedescolocs.fr/colocations/fr/ile-de-france/paris/a/wx6cop", "AdTitle": "Appartement 4 pièces de 100 m²", "RentalPrice_EUR": "1030", "RentalAddrese": "Rue Lecourbe, Paris", "RentalSize_m2": "100", "RentalRooms": "4", "RentalType": "Appartement", "Furnished": "Meublé", "Lat": "48.84375", "Lon": "2.30561"},
{"AdUrl": "https://www.lacartedescolocs.fr/colocations/fr/ile-de-france/paris/a/bp598l", "AdTitle": "Appartement 6 pièces de 85 m²", "RentalPrice_EUR": "1035", "RentalAddrese": "Rue du Père Brottier, Paris", "RentalSize_m2": "85", "RentalRooms": "6", "RentalType": "Appartement", "Furnished": "Meublé", "Lat": "48.84975", "Lon": "2.27109"},
{"AdUrl": "https://www.lacartedescolocs.fr/colocations/fr/ile-de-france/paris/a/vxahn8", "AdTitle": "Appartement 33 pièces de 775 m²", "RentalPrice_EUR": "1159", "RentalAddrese": "Rue des Haies, Paris", "RentalSize_m2": "775", "RentalRooms": "33", "RentalType": "Appartement", "Furnished": "Meublé", "Lat": "2.40307", "Lon": "48.85411"},
{"AdUrl": "https://www.lacartedescolocs.fr/colocations/fr/ile-de-france/paris/a/fq10pd", "AdTitle": "Appartement 4 pièces de 82 m²", "RentalPrice_EUR": "995", "RentalAddrese": "Rue Césaria Évora, Paris", "RentalSize_m2": "82", "RentalRooms": "4", "RentalFloor": "Duplex", "RentalType": "Appartement", "Furnished": "Meublé", "Lat": "48.89772", "Lon": "2.37489"},
{"AdUrl": "https://www.lacartedescolocs.fr/colocations/fr/ile-de-france/paris/a/0oxcv4", "AdTitle": "Appartement 6 pièces de 125 m²", "RentalPrice_EUR": "3990", "RentalAddrese": "Rue Condillac, Paris", "RentalSize_m2": "125", "RentalRooms": "6", "RentalFloor": "Duplex", "RentalType": "Appartement", "Furnished": "Meublé", "Lat": "48.86413", "Lon": "2.38351"},
{"AdUrl": "https://www.lacartedescolocs.fr/colocations/fr/ile-de-france/paris/a/iilfko", "AdTitle": "Appartement 2 pièces de 42 m²", "RentalPrice_EUR": "1000", "RentalAddrese": "Rue Rodier, Paris", "RentalSize_m2": "42", "RentalRooms": "2", "RentalType": "Appartement", "Furnished": "Meublé", "Lat": "48.8782", "Lon": "2.34274"},
{"AdUrl": "https://www.lacartedescolocs.fr/colocations/fr/ile-de-france/paris/a/viuvk0", "AdTitle": "Appartement 3 pièces de 70 m²", "RentalPrice_EUR": "1325", "RentalAddrese": "Avenue de Suffren, Paris", "RentalSize_m2": "70", "RentalRooms": "3", "RentalType": "Appartement", "Furnished": "Meublé", "Lat": "48.85419", "Lon": "2.29565"},
{"AdUrl": "https://www.lacartedescolocs.fr/colocations/fr/ile-de-france/paris/a/dgizfl", "AdTitle": "Appartement 4 pièces de 86 m²", "RentalPrice_EUR": "820", "RentalAddrese": "Rue Saint-Hubert, Paris", "RentalSize_m2": "86", "RentalRooms": "4", "RentalType": "Appartement", "Furnished": "Meublé", "Lat": "48.86386", "Lon": "2.38"},
{"AdUrl": "https://www.lacartedescolocs.fr/colocations/fr/ile-de-france/paris/a/pjphs4", "AdTitle": "Appartement 8 pièces de 160 m²", "RentalPrice_EUR": "1153", "RentalAddrese": "24 Rue Richer,, Paris", "RentalSize_m2": "160", "RentalRooms": "8", "RentalType": "Appartement", "Furnished": "Meublé", "Lat": "48.87434", "Lon": "2.34583"},
{"AdUrl": "https://www.lacartedescolocs.fr/colocations/fr/ile-de-france/paris/a/c3uxec", "AdTitle": "Appartement 6 pièces de 220 m²", "RentalPrice_EUR": "1150", "RentalAddrese": "Rue La Fayette, Paris", "RentalSize_m2": "220", "RentalRooms": "6", "RentalType": "Appartement", "Furnished": "Meublé", "Lat": "48.87833", "Lon": "2.35364"},
{"AdUrl": "https://www.lacartedescolocs.fr/colocations/fr/ile-de-france/paris/a/o28v1j", "AdTitle": "Appartement 3 pièces de 55 m²", "RentalPrice_EUR": "778", "RentalAddrese": "Rue Jean Macé, Paris", "RentalSize_m2": "55", "RentalRooms": "3", "RentalFloor": "1er étage", "RentalType": "Appartement", "Lat": "48.85276", "Lon": "2.3844"},
{"AdUrl": "https://www.lacartedescolocs.fr/colocations/fr/ile-de-france/paris/a/kaohi2", "AdTitle": "Appartement 4 pièces de 100 m²", "RentalPrice_EUR": "945", "RentalAddrese": "Rue Guilleminot, Paris", "RentalSize_m2": "100", "RentalRooms": "4", "RentalType": "Appartement", "Furnished": "Meublé", "Lat": "48.83565", "Lon": "2.31762"},
{"AdUrl": "https://www.lacartedescolocs.fr/colocations/fr/ile-de-france/paris/a/qmqcp6", "AdTitle": "Appartement 3 pièces de 64 m²", "RentalPrice_EUR": "1000", "RentalAddrese": "Boulevard Voltaire, Paris", "RentalSize_m2": "64", "RentalRooms": "3", "RentalType": "Appartement", "Furnished": "Meublé", "Lat": "48.8555", "Lon": "2.38431"},
{"AdUrl": "https://www.lacartedescolocs.fr/colocations/fr/ile-de-france/paris/a/qtyvm9", "AdTitle": "Appartement 5 pièces de 107 m²", "RentalPrice_EUR": "792", "RentalAddrese": "Rue de Maubeuge, Paris", "RentalSize_m2": "107", "RentalRooms": "5", "RentalType": "Appartement", "Furnished": "Meublé", "Lat": "48.88352", "Lon": "2.3554"},
{"AdUrl": "https://www.lacartedescolocs.fr/colocations/fr/ile-de-france/paris/a/10bky8", "AdTitle": "Appartement", "RentalPrice_EUR": "1000", "RentalAddrese": "Paris", "RentalType": "Appartement", "Lat": "48.8622", "Lon": "2.34263"},
{"AdUrl": "https://www.lacartedescolocs.fr/colocations/fr/ile-de-france/paris/a/b0v9ef", "AdTitle": "Appartement 7 pièces de 120 m²", "RentalPrice_EUR": "1090", "RentalAddrese": "3 Place Balard ,, Paris", "RentalSize_m2": "120", "RentalRooms": "7", "RentalType": "Appartement", "Furnished": "Meublé", "Lat": "48.83692", "Lon": "2.27911"},
{"AdUrl": "https://www.lacartedescolocs.fr/colocations/fr/ile-de-france/paris/a/06zpre", "AdTitle": "Appartement 2 pièces de 43 m²", "RentalPrice_EUR": "550", "RentalAddrese": "Rue de la Villette, Paris", "RentalSize_m2": "43", "RentalRooms": "2", "RentalType": "Appartement", "Furnished": "Meublé", "Lat": "48.87711", "Lon": "2.38788"},
{"AdUrl": "https://www.lacartedescolocs.fr/colocations/fr/ile-de-france/paris/a/rtmujp", "AdTitle": "Appartement 3 pièces de 85 m²", "RentalPrice_EUR": "700", "RentalAddrese": "Rue de la Tombe Issoire, Paris", "RentalSize_m2": "85", "RentalRooms": "3", "RentalType": "Appartement", "Furnished": "Meublé", "Lat": "48.82919", "Lon": "2.33334"},
{"AdUrl": "https://www.lacartedescolocs.fr/colocations/fr/ile-de-france/paris/a/9bivms", "AdTitle": "Appartement 7 pièces de 190 m²", "RentalPrice_EUR": "1175", "RentalAddrese": "Boulevard Malesherbes - Bat A, Paris", "RentalSize_m2": "190", "RentalRooms": "7", "RentalType": "Appartement", "Furnished": "Meublé", "Lat": "48.88615", "Lon": "2.30578"},
{"AdUrl": "https://www.lacartedescolocs.fr/colocations/fr/ile-de-france/paris/a/797sip", "AdTitle": "Maison 6 pièces de 130 m²", "RentalPrice_EUR": "995", "RentalAddrese": "Rue Thiboumery, Paris", "RentalSize_m2": "130", "RentalRooms": "6", "RentalFloor": "Rez-de-chaussée", "RentalType": "Maison", "Furnished": "Meublé", "Lat": "48.83634", "Lon": "2.30467"},
{"AdUrl": "https://www.lacartedescolocs.fr/colocations/fr/ile-de-france/paris/a/y2l4e7", "AdTitle": "Appartement 6 pièces de 75 m²", "RentalPrice_EUR": "755", "RentalAddrese": "Paris", "RentalSize_m2": "75", "RentalRooms": "6", "RentalType": "Appartement", "Lat": "48.84715", "Lon": "2.41018"},
{"AdUrl": "https://www.lacartedescolocs.fr/colocations/fr/ile-de-france/paris/a/l98ova", "AdTitle": "Appartement 3 pièces de 70 m²", "RentalPrice_EUR": "940", "RentalAddrese": "Rue de Lourmel, Paris", "RentalSize_m2": "70", "RentalRooms": "3", "RentalType": "Appartement", "Furnished": "Meublé", "Lat": "48.83984", "Lon": "2.28356"},
{"AdUrl": "https://www.lacartedescolocs.fr/colocations/fr/ile-de-france/paris/a/j0ke8z", "AdTitle": "Appartement 4 pièces de 90 m²", "RentalPrice_EUR": "1145", "RentalAddrese": "Rue de Saussure, Paris", "RentalSize_m2": "90", "RentalRooms": "4", "RentalType": "Appartement", "Furnished": "Meublé", "Lat": "48.88962", "Lon": "2.30709"},
{"AdUrl": "https://www.lacartedescolocs.fr/colocations/fr/ile-de-france/paris/a/k3n59r", "AdTitle": "Appartement 3 pièces de 66 m²", "RentalPrice_EUR": "876", "RentalAddrese": "Avenue Philippe-Auguste, Paris", "RentalSize_m2": "66", "RentalRooms": "3", "RentalType": "Appartement", "Furnished": "Meublé", "Lat": "48.85336", "Lon": "2.39306"},
{"AdUrl": "https://www.lacartedescolocs.fr/colocations/fr/ile-de-france/paris/a/k9ke5p", "AdTitle": "Appartement 3 pièces de 54 m²", "RentalPrice_EUR": "780", "RentalAddrese": "Rue de la Réunion, Paris", "RentalSize_m2": "54", "RentalRooms": "3", "RentalType": "Appartement", "Lat": "48.85348", "Lon": "2.40317"},
{"AdUrl": "https://www.lacartedescolocs.fr/colocations/fr/ile-de-france/paris/a/hmy35y", "AdTitle": "Appartement 4 pièces de 80 m²", "RentalPrice_EUR": "890", "RentalAddrese": "Rue des Vinaigriers, Paris", "RentalSize_m2": "80", "RentalRooms": "4", "RentalType": "Appartement", "Lat": "48.87315", "Lon": "2.36009"},
{"AdUrl": "https://www.lacartedescolocs.fr/colocations/fr/ile-de-france/paris/a/vprckt", "AdTitle": "Immeuble 5 pièces de 105 m²", "RentalPrice_EUR": "770", "RentalAddrese": "Rue de la Tombe Issoire, Paris", "RentalSize_m2": "105", "RentalRooms": "5", "RentalType": "Immeuble", "Lat": "48.8314", "Lon": "2.33504"},
{"AdUrl": "https://www.lacartedescolocs.fr/colocations/fr/ile-de-france/paris/a/3dcx11", "AdTitle": "Appartement", "RentalPrice_EUR": "680", "RentalAddrese": "Paris", "RentalType": "Appartement", "Lat": "48.8805", "Lon": "2.3746"},
{"AdUrl": "https://www.lacartedescolocs.fr/colocations/fr/ile-de-france/paris/a/8ae1b8", "AdTitle": "Appartement 5 pièces de 130 m²", "RentalPrice_EUR": "995", "RentalAddrese": "Rue Claude Lorrain, Paris", "RentalSize_m2": "130", "RentalRooms": "5", "RentalType": "Appartement", "Furnished": "Meublé", "Lat": "48.8414", "Lon": "2.26087"},
{"AdUrl": "https://www.lacartedescolocs.fr/colocations/fr/ile-de-france/paris/a/4rz0um", "AdTitle": "Appartement 4 pièces de 140 m²", "RentalPrice_EUR": "1270", "RentalAddrese": "Rue Condorcet, Paris", "RentalSize_m2": "140", "RentalRooms": "4", "RentalType": "Appartement", "Furnished": "Meublé", "Lat": "48.88046", "Lon": "2.34174"},
{"AdUrl": "https://www.lacartedescolocs.fr/colocations/fr/ile-de-france/paris/a/fztzco", "AdTitle": "Appartement 2 pièces de 12 m²", "RentalPrice_EUR": "585", "RentalAddrese": "Rue Carolus Duran, Paris", "RentalSize_m2": "12", "RentalRooms": "2", "RentalFloor": "4ème étage", "RentalType": "Appartement", "Furnished": "Meublé", "Lat": "48.87787", "Lon": "2.40098"},
{"AdUrl": "https://www.lacartedescolocs.fr/colocations/fr/ile-de-france/paris/a/rkq4th", "AdTitle": "Appartement 4 pièces de 80 m²", "RentalPrice_EUR": "975", "RentalAddrese": "Rue de l'Eglise, Paris", "RentalSize_m2": "80", "RentalRooms": "4", "RentalType": "Appartement", "Furnished": "Meublé", "Lat": "48.84433", "Lon": "2.28731"},
{"AdUrl": "https://www.lacartedescolocs.fr/colocations/fr/ile-de-france/paris/a/03wtia", "AdTitle": "Appartement 4 pièces de 74 m²", "RentalPrice_EUR": "880", "RentalAddrese": "Avenue du Maine, Paris", "RentalSize_m2": "74", "RentalRooms": "4", "RentalFloor": "3ème étage", "RentalType": "Appartement", "Lat": "48.835", "Lon": "2.32369"},
{"AdUrl": "https://www.lacartedescolocs.fr/colocations/fr/ile-de-france/paris/a/0juh54", "AdTitle": "Appartement 9 pièces de 140 m²", "RentalPrice_EUR": "1015", "RentalAddrese": "Rue du Buisson Saint-Louis, Paris", "RentalSize_m2": "140", "RentalRooms": "9", "RentalType": "Appartement", "Furnished": "Meublé", "Lat": "48.8729", "Lon": "2.3738"},
{"AdUrl": "https://www.lacartedescolocs.fr/colocations/fr/ile-de-france/paris/a/sysjwl", "AdTitle": "Appartement 5 pièces de 105 m²", "RentalPrice_EUR": "1050", "RentalAddrese": "Square Rapp, Paris", "RentalSize_m2": "105", "RentalRooms": "5", "RentalType": "Appartement", "Furnished": "Meublé", "Lat": "48.85882", "Lon": "2.30122"},
{"AdUrl": "https://www.lacartedescolocs.fr/colocations/fr/ile-de-france/paris/a/tou2fl", "AdTitle": "Appartement 4 pièces de 80 m²", "RentalPrice_EUR": "990", "RentalAddrese": "Rue de l'Eglise, Paris", "RentalSize_m2": "80", "RentalRooms": "4", "RentalType": "Appartement", "Furnished": "Meublé", "Lat": "48.84433", "Lon": "2.28731"},
{"AdUrl": "https://www.lacartedescolocs.fr/colocations/fr/ile-de-france/paris/a/jztode", "AdTitle": "Appartement de 45 m²", "RentalPrice_EUR": "660", "RentalAddrese": "Paris", "RentalSize_m2": "45", "RentalType": "Appartement", "Lat": "48.8681", "Lon": "2.40017"},
{"AdUrl": "https://www.lacartedescolocs.fr/colocations/fr/ile-de-france/paris/a/uyevl8", "AdTitle": "Appartement 5 pièces de 79 m²", "RentalPrice_EUR": "910", "RentalAddrese": "Rue de Vouillé, Paris", "RentalSize_m2": "79", "RentalRooms": "5", "RentalType": "Appartement", "Furnished": "Meublé", "Lat": "48.83405", "Lon": "2.30788"},
{"AdUrl": "https://www.lacartedescolocs.fr/colocations/fr/ile-de-france/paris/a/h5efx3", "AdTitle": "Appartement 3 pièces de 64 m²", "RentalPrice_EUR": "980", "RentalAddrese": "Rue Beaurepaire, Paris", "RentalSize_m2": "64", "RentalRooms": "3", "RentalType": "Appartement", "Lat": "48.87116", "Lon": "2.36406"},
{"AdUrl": "https://www.lacartedescolocs.fr/colocations/fr/ile-de-france/paris/a/r365b4", "AdTitle": "Loft/atelier 6 pièces de 160 m²", "RentalPrice_EUR": "780", "RentalAddrese": "Avenue de la Porte de la Villette, Paris", "RentalSize_m2": "160", "RentalRooms": "6", "RentalType": "Loft/atelier", "Furnished": "Meublé", "Lat": "48.90002", "Lon": "2.38815"},
{"AdUrl": "https://www.lacartedescolocs.fr/colocations/fr/ile-de-france/paris/a/qzmn74", "AdTitle": "Appartement 6 pièces de 87 m²", "RentalPrice_EUR": "830", "RentalAddrese": "Rue de Saussure, Paris", "RentalSize_m2": "87", "RentalRooms": "6", "RentalType": "Appartement", "Furnished": "Meublé", "Lat": "48.88956", "Lon": "2.30678"},
{"AdUrl": "https://www.lacartedescolocs.fr/colocations/fr/ile-de-france/paris/a/siovve", "AdTitle": "Appartement 3 pièces de 70 m²", "RentalPrice_EUR": "895", "RentalAddrese": "Avenue de Flandre, Paris", "RentalSize_m2": "70", "RentalRooms": "3", "RentalType": "Appartement", "Furnished": "Meublé", "Lat": "48.89183", "Lon": "2.37784"},
{"AdUrl": "https://www.lacartedescolocs.fr/colocations/fr/ile-de-france/paris/a/jrnw4d", "AdTitle": "Appartement 3 pièces de 50 m²", "RentalPrice_EUR": "920", "RentalAddrese": "Rue Stephenson, Paris", "RentalSize_m2": "50", "RentalRooms": "3", "RentalType": "Appartement", "Furnished": "Meublé", "Lat": "48.89014", "Lon": "2.35574"},
{"AdUrl": "https://www.lacartedescolocs.fr/colocations/fr/ile-de-france/paris/a/8rgw7l", "AdTitle": "Appartement 6 pièces de 170 m²", "RentalPrice_EUR": "1365", "RentalAddrese": "Rue Léo Delibes, Paris", "RentalSize_m2": "170", "RentalRooms": "6", "RentalType": "Appartement", "Furnished": "Meublé", "Lat": "48.86697", "Lon": "2.28788"},
{"AdUrl": "https://www.lacartedescolocs.fr/colocations/fr/ile-de-france/paris/a/xmt838", "AdTitle": "Appartement 5 pièces de 104 m²", "RentalPrice_EUR": "900", "RentalAddrese": "Rue des Bernardins, Paris", "RentalSize_m2": "104", "RentalRooms": "5", "RentalFloor": "Duplex", "RentalType": "Appartement", "Furnished": "Meublé", "Lat": "48.85063", "Lon": "2.35091"},
{"AdUrl": "https://www.lacartedescolocs.fr/colocations/fr/ile-de-france/paris/a/gtt7k8", "AdTitle": "Appartement 9 pièces de 140 m²", "RentalPrice_EUR": "1015", "RentalAddrese": "Rue du Buisson Saint-Louis, Paris", "RentalSize_m2": "140", "RentalRooms": "9", "RentalType": "Appartement", "Furnished": "Meublé", "Lat": "48.8729", "Lon": "2.3738"},
{"AdUrl": "https://www.lacartedescolocs.fr/colocations/fr/ile-de-france/paris/a/1a590v", "AdTitle": "Appartement 3 pièces", "RentalPrice_EUR": "600", "RentalAddrese": "Paris", "RentalRooms": "3", "RentalType": "Appartement", "Lat": "48.8448", "Lon": "2.2839"},
{"AdUrl": "https://www.lacartedescolocs.fr/colocations/fr/ile-de-france/paris/a/dqrho0", "AdTitle": "Appartement", "RentalPrice_EUR": "880", "RentalAddrese": "Paris", "RentalType": "Appartement", "Lat": "48.8994", "Lon": "2.32219"},
{"AdUrl": "https://www.lacartedescolocs.fr/colocations/fr/ile-de-france/paris/a/1j0nyj", "AdTitle": "Appartement 5 pièces de 99 m²", "RentalPrice_EUR": "1020", "RentalAddrese": "Rue de Lourmel, Paris", "RentalSize_m2": "99", "RentalRooms": "5", "RentalType": "Appartement", "Furnished": "Meublé", "Lat": "48.84038", "Lon": "2.28371"},
{"AdUrl": "https://www.lacartedescolocs.fr/colocations/fr/ile-de-france/paris/a/vwcmml", "AdTitle": "Appartement 4 pièces de 90 m²", "RentalPrice_EUR": "876", "RentalAddrese": "Rue de Saint-Quentin, Paris", "RentalSize_m2": "90", "RentalRooms": "4", "RentalType": "Appartement", "Furnished": "Meublé", "Lat": "48.87855", "Lon": "2.35553"},
{"AdUrl": "https://www.lacartedescolocs.fr/colocations/fr/ile-de-france/paris/a/9kifsg", "AdTitle": "Appartement 4 pièces de 100 m²", "RentalPrice_EUR": "1250", "RentalAddrese": "Boulevard Marguerite de Rochechouart, Paris", "RentalSize_m2": "100", "RentalRooms": "4", "RentalType": "Appartement", "Furnished": "Meublé", "Lat": "48.88377", "Lon": "2.34756"},
{"AdUrl": "https://www.lacartedescolocs.fr/colocations/fr/ile-de-france/paris/a/a6jbk7", "AdTitle": "Appartement 3 pièces de 50 m²", "RentalPrice_EUR": "650", "RentalAddrese": "Avenue de Suffren, Paris", "RentalSize_m2": "50", "RentalRooms": "3", "RentalType": "Appartement", "Furnished": "Meublé", "Lat": "48.8463", "Lon": "2.30826"},
{"AdUrl": "https://www.lacartedescolocs.fr/colocations/fr/ile-de-france/paris/a/awdwva", "AdTitle": "Appartement 5 pièces de 100 m²", "RentalPrice_EUR": "975", "RentalAddrese": "Rue de Vouillé, Paris", "RentalSize_m2": "100", "RentalRooms": "5", "RentalType": "Appartement", "Furnished": "Meublé", "Lat": "48.83496", "Lon": "2.30372"},
{"AdUrl": "https://www.lacartedescolocs.fr/colocations/fr/ile-de-france/paris/a/5zss0a", "AdTitle": "Appartement 5 pièces de 95 m²", "RentalPrice_EUR": "990", "RentalAddrese": "Rue du Faubourg Saint-Honoré, Paris", "RentalSize_m2": "95", "RentalRooms": "5", "RentalType": "Appartement", "Furnished": "Meublé", "Lat": "48.87417", "Lon": "2.30782"},
{"AdUrl": "https://www.lacartedescolocs.fr/colocations/fr/ile-de-france/paris/a/6nmr5h", "AdTitle": "Appartement 6 pièces de 130 m²", "RentalPrice_EUR": "1200", "RentalAddrese": "Rue de Rivoli, Paris", "RentalSize_m2": "130", "RentalRooms": "6", "RentalType": "Appartement", "Furnished": "Meublé", "Lat": "48.85947", "Lon": "2.34482"},
{"AdUrl": "https://www.lacartedescolocs.fr/colocations/fr/ile-de-france/paris/a/h4hlde", "AdTitle": "Appartement 3 pièces de 47 m²", "RentalPrice_EUR": "800", "RentalAddrese": "Rue Chapon, Paris", "RentalSize_m2": "47", "RentalRooms": "3", "RentalType": "Appartement", "Furnished": "Meublé", "Lat": "48.86399", "Lon": "2.35419"},
{"AdUrl": "https://www.lacartedescolocs.fr/colocations/fr/ile-de-france/paris/a/4gooyk", "AdTitle": "Appartement 5 pièces de 110 m²", "RentalPrice_EUR": "1010", "RentalAddrese": "Rue de Belleville, Paris", "RentalSize_m2": "110", "RentalRooms": "5", "RentalType": "Appartement", "Furnished": "Meublé", "Lat": "48.87677", "Lon": "2.40471"},
{"AdUrl": "https://www.lacartedescolocs.fr/colocations/fr/ile-de-france/paris/a/5ftb43", "AdTitle": "Appartement 4 pièces de 57 m²", "RentalPrice_EUR": "911", "RentalAddrese": "Paris", "RentalSize_m2": "57", "RentalRooms": "4", "RentalType": "Appartement", "Furnished": "Meublé", "Lat": "48.89733", "Lon": "2.32325"},
{"AdUrl": "https://www.lacartedescolocs.fr/colocations/fr/ile-de-france/paris/a/nod3gs", "AdTitle": "Appartement 4 pièces de 80 m²", "RentalPrice_EUR": "786", "RentalAddrese": "Rue Pierre Larousse, Paris", "RentalSize_m2": "80", "RentalRooms": "4", "RentalType": "Appartement", "Furnished": "Meublé", "Lat": "48.82938", "Lon": "2.31367"},
{"AdUrl": "https://www.lacartedescolocs.fr/colocations/fr/ile-de-france/paris/a/qpcbpl", "AdTitle": "Appartement 6 pièces de 98 m²", "RentalPrice_EUR": "915", "RentalAddrese": "Place de la Porte de Châtillon, Paris", "RentalSize_m2": "98", "RentalRooms": "6", "RentalType": "Appartement", "Furnished": "Meublé", "Lat": "48.82428", "Lon": "2.3196"},
{"AdUrl": "https://www.lacartedescolocs.fr/colocations/fr/ile-de-france/paris/a/wriugf", "AdTitle": "Appartement 8 pièces de 90 m²", "RentalPrice_EUR": "900", "RentalAddrese": "Rue Desnouettes, Paris", "RentalSize_m2": "90", "RentalRooms": "8", "RentalType": "Appartement", "Lat": "48.83576", "Lon": "2.28714"},
{"AdUrl": "https://www.lacartedescolocs.fr/colocations/fr/ile-de-france/paris/a/oqrage", "AdTitle": "Appartement 8 pièces de 120 m²", "RentalPrice_EUR": "636", "RentalAddrese": "Rue Lecourbe, Paris", "RentalSize_m2": "120", "RentalRooms": "8", "RentalType": "Appartement", "Lat": "48.83701", "Lon": "2.28413"},
{"AdUrl": "https://www.lacartedescolocs.fr/colocations/fr/ile-de-france/paris/a/26padq", "AdTitle": "Appartement 3 pièces de 31 m²", "RentalPrice_EUR": "930", "RentalAddrese": "Rue de Gergovie, Paris", "RentalSize_m2": "31", "RentalRooms": "3", "RentalFloor": "4ème étage", "RentalType": "Appartement", "Furnished": "Meublé", "Lat": "48.83265", "Lon": "2.31676"},
{"AdUrl": "https://www.lacartedescolocs.fr/colocations/fr/ile-de-france/paris/a/2c5rs0", "AdTitle": "Appartement 6 pièces de 67 m²", "RentalPrice_EUR": "666", "RentalAddrese": "Rue de Thionville, Paris", "RentalSize_m2": "67", "RentalRooms": "6", "RentalType": "Appartement", "Furnished": "Meublé", "Lat": "48.88795", "Lon": "2.38094"},
{"AdUrl": "https://www.lacartedescolocs.fr/colocations/fr/ile-de-france/paris/a/mmep77", "AdTitle": "Appartement 5 pièces de 55 m²", "RentalPrice_EUR": "900", "RentalAddrese": "Rue Manin, Paris", "RentalSize_m2": "55", "RentalRooms": "5", "RentalType": "Appartement", "Furnished": "Meublé", "Lat": "48.8829", "Lon": "2.3861"},
{"AdUrl": "https://www.lacartedescolocs.fr/colocations/fr/ile-de-france/paris/a/rfqlsr", "AdTitle": "Appartement 3 pièces de 57 m²", "RentalPrice_EUR": "895", "RentalAddrese": "Avenue de la Porte des Lilas, Paris", "RentalSize_m2": "57", "RentalRooms": "3", "RentalType": "Appartement", "Furnished": "Meublé", "Lat": "48.87798", "Lon": "2.40713"},
{"AdUrl": "https://www.lacartedescolocs.fr/colocations/fr/ile-de-france/paris/a/yiwx2f", "AdTitle": "Appartement 2 pièces de 50 m²", "RentalPrice_EUR": "1110", "RentalAddrese": "Rue de Belleville, Paris", "RentalSize_m2": "50", "RentalRooms": "2", "RentalType": "Appartement", "Furnished": "Meublé", "Lat": "48.87677", "Lon": "2.40471"},
{"AdUrl": "https://www.lacartedescolocs.fr/colocations/fr/ile-de-france/paris/a/lja7aw", "AdTitle": "Appartement 3 pièces de 50 m²", "RentalPrice_EUR": "1100", "RentalAddrese": "Avenue d'Italie, Paris", "RentalSize_m2": "50", "RentalRooms": "3", "RentalFloor": "1er étage", "RentalType": "Appartement", "Furnished": "Meublé", "Lat": "48.82373", "Lon": "2.35832"},
{"AdUrl": "https://www.lacartedescolocs.fr/colocations/fr/ile-de-france/paris/a/zwp3r7", "AdTitle": "Appartement 3 pièces de 60 m²", "RentalPrice_EUR": "1070", "RentalAddrese": "Rue Saint-Martin, Paris", "RentalSize_m2": "60", "RentalRooms": "3", "RentalType": "Appartement", "Furnished": "Meublé", "Lat": "48.8597", "Lon": "2.3506"},
{"AdUrl": "https://www.lacartedescolocs.fr/colocations/fr/ile-de-france/paris/a/32lifb", "AdTitle": "Appartement 7 pièces de 220 m²", "RentalPrice_EUR": "1215", "RentalAddrese": "Boulevard Malesherbes - Bat A, Paris", "RentalSize_m2": "220", "RentalRooms": "7", "RentalType": "Appartement", "Furnished": "Meublé", "Lat": "48.88615", "Lon": "2.30578"},
{"AdUrl": "https://www.lacartedescolocs.fr/colocations/fr/ile-de-france/paris/a/b14oq4", "AdTitle": "Appartement 2 pièces de 30 m²", "RentalPrice_EUR": "750", "RentalAddrese": "Rue des Pyrénées, Paris", "RentalSize_m2": "30", "RentalRooms": "2", "RentalType": "Appartement", "Lat": "48.86906", "Lon": "2.39506"},
{"AdUrl": "https://www.lacartedescolocs.fr/colocations/fr/ile-de-france/paris/a/wr78mr", "AdTitle": "Appartement 4 pièces de 80 m²", "RentalPrice_EUR": "1060", "RentalAddrese": "Avenue des Ternes, Paris", "RentalSize_m2": "80", "RentalRooms": "4", "RentalType": "Appartement", "Furnished": "Meublé", "Lat": "48.87909", "Lon": "2.29147"},
{"AdUrl": "https://www.lacartedescolocs.fr/colocations/fr/ile-de-france/paris/a/5x0nz7", "AdTitle": "Appartement 4 pièces de 90 m²", "RentalPrice_EUR": "980", "RentalAddrese": "Boulevard de Dixmude, Paris", "RentalSize_m2": "90", "RentalRooms": "4", "RentalType": "Appartement", "Furnished": "Meublé", "Lat": "48.88264", "Lon": "2.28424"},
{"AdUrl": "https://www.lacartedescolocs.fr/colocations/fr/ile-de-france/paris/a/rc9cwy", "AdTitle": "Appartement 3 pièces de 50 m²", "RentalPrice_EUR": "900", "RentalAddrese": "Rue Oudry, Paris", "RentalSize_m2": "50", "RentalRooms": "3", "RentalFloor": "Rez-de-chaussée", "RentalType": "Appartement", "Furnished": "Meublé", "Lat": "48.83702", "Lon": "2.35583"},
{"AdUrl": "https://www.lacartedescolocs.fr/colocations/fr/ile-de-france/paris/a/irgy1a", "AdTitle": "Appartement 4 pièces de 100 m²", "RentalPrice_EUR": "650", "RentalAddrese": "Rue du Nord, Paris", "RentalSize_m2": "100", "RentalRooms": "4", "RentalType": "Appartement", "Furnished": "Meublé", "Lat": "48.89299", "Lon": "2.35072"},
{"AdUrl": "https://www.lacartedescolocs.fr/colocations/fr/ile-de-france/paris/a/k7m2f7", "AdTitle": "Appartement 3 pièces de 60 m²", "RentalPrice_EUR": "930", "RentalAddrese": "Rue Myrha, Paris", "RentalSize_m2": "60", "RentalRooms": "3", "RentalType": "Appartement", "Lat": "48.8864", "Lon": "2.34884"},
{"AdUrl": "https://www.lacartedescolocs.fr/colocations/fr/ile-de-france/paris/a/szn6qb", "AdTitle": "Appartement 3 pièces de 80 m²", "RentalPrice_EUR": "800", "RentalAddrese": "Rue Ramey, Paris", "RentalSize_m2": "80", "RentalRooms": "3", "RentalType": "Appartement", "Furnished": "Meublé", "Lat": "48.89118", "Lon": "2.34488"},
{"AdUrl": "https://www.lacartedescolocs.fr/colocations/fr/ile-de-france/paris/a/pgw3uo", "AdTitle": "Appartement 4 pièces de 73 m²", "RentalPrice_EUR": "1080", "RentalAddrese": "Rue de Belloy, Paris", "RentalSize_m2": "73", "RentalRooms": "4", "RentalType": "Appartement", "Furnished": "Meublé", "Lat": "48.86886", "Lon": "2.29222"},
{"AdUrl": "https://www.lacartedescolocs.fr/colocations/fr/ile-de-france/paris/a/rb2lrk", "AdTitle": "Maison 5 pièces de 127 m²", "RentalPrice_EUR": "850", "RentalAddrese": "Boulevard Jourdan, Paris", "RentalSize_m2": "127", "RentalRooms": "5", "RentalType": "Maison", "Furnished": "Meublé", "Lat": "48.81998", "Lon": "2.33871"},
{"AdUrl": "https://www.lacartedescolocs.fr/colocations/fr/ile-de-france/paris/a/dyjbcq", "AdTitle": "Appartement 3 pièces de 38 m²", "RentalPrice_EUR": "600", "RentalAddrese": "Rue de Patay, Paris", "RentalSize_m2": "38", "RentalRooms": "3", "RentalType": "Appartement", "Furnished": "Meublé", "Lat": "48.82688", "Lon": "2.37244"},
{"AdUrl": "https://www.lacartedescolocs.fr/colocations/fr/ile-de-france/paris/a/38li39", "AdTitle": "Appartement 3 pièces de 50 m²", "RentalPrice_EUR": "740", "RentalAddrese": "Rue Doudeauville, Paris", "RentalSize_m2": "50", "RentalRooms": "3", "RentalType": "Appartement", "Furnished": "Meublé", "Lat": "48.88849", "Lon": "2.35287"},
{"AdUrl": "https://www.lacartedescolocs.fr/colocations/fr/ile-de-france/paris/a/qwi32m", "AdTitle": "Appartement 3 pièces de 64 m²", "RentalPrice_EUR": "1000", "RentalAddrese": "Rue Alexandre Dumas, Paris", "RentalSize_m2": "64", "RentalRooms": "3", "RentalType": "Appartement", "Furnished": "Meublé", "Lat": "48.85401", "Lon": "2.39491"},
{"AdUrl": "https://www.lacartedescolocs.fr/colocations/fr/ile-de-france/paris/a/23jr59", "AdTitle": "Appartement 3 pièces de 65 m²", "RentalPrice_EUR": "840", "RentalAddrese": "Rue Cazotte, Paris", "RentalSize_m2": "65", "RentalRooms": "3", "RentalType": "Appartement", "Furnished": "Meublé", "Lat": "48.88531", "Lon": "2.34476"},
{"AdUrl": "https://www.lacartedescolocs.fr/colocations/fr/ile-de-france/paris/a/1p5y1f", "AdTitle": "Appartement 4 pièces de 80 m²", "RentalPrice_EUR": "1035", "RentalAddrese": "Rue de Passy, Paris", "RentalSize_m2": "80", "RentalRooms": "4", "RentalType": "Appartement", "Furnished": "Meublé", "Lat": "48.85852", "Lon": "2.2838"},
{"AdUrl": "https://www.lacartedescolocs.fr/colocations/fr/ile-de-france/paris/a/1xgxmj", "AdTitle": "Appartement 5 pièces de 120 m²", "RentalPrice_EUR": "1035", "RentalAddrese": "Rue Lecourbe, Paris", "RentalSize_m2": "120", "RentalRooms": "5", "RentalType": "Appartement", "Furnished": "Meublé", "Lat": "48.84375", "Lon": "2.30561"},
{"AdUrl": "https://www.lacartedescolocs.fr/colocations/fr/ile-de-france/paris/a/4x9sv4", "AdTitle": "Appartement 4 pièces de 70 m²", "RentalPrice_EUR": "950", "RentalAddrese": "Rue Sextius Michel, Paris", "RentalSize_m2": "70", "RentalRooms": "4", "RentalType": "Appartement", "Furnished": "Meublé", "Lat": "48.85092", "Lon": "2.28876"},
{"AdUrl": "https://www.lacartedescolocs.fr/colocations/fr/ile-de-france/paris/a/n4848q", "AdTitle": "Appartement 3 pièces de 70 m²", "RentalPrice_EUR": "965", "RentalAddrese": "Avenue Reille, Paris", "RentalSize_m2": "70", "RentalRooms": "3", "RentalType": "Appartement", "Furnished": "Meublé", "Lat": "48.82385", "Lon": "2.33441"},
{"AdUrl": "https://www.lacartedescolocs.fr/colocations/fr/ile-de-france/paris/a/1fdp1j", "AdTitle": "Appartement 5 pièces de 85 m²", "RentalPrice_EUR": "1200", "RentalAddrese": "Rue Coustou, Paris", "RentalSize_m2": "85", "RentalRooms": "5", "RentalFloor": "Duplex", "RentalType": "Appartement", "Furnished": "Meublé", "Lat": "48.8839", "Lon": "2.334"},
{"AdUrl": "https://www.lacartedescolocs.fr/colocations/fr/ile-de-france/paris/a/uxuvk4", "AdTitle": "Appartement 5 pièces de 75 m²", "RentalPrice_EUR": "734", "RentalAddrese": "Rue Eugène Millon, Paris", "RentalSize_m2": "75", "RentalRooms": "5", "RentalType": "Appartement", "Furnished": "Meublé", "Lat": "48.83745", "Lon": "2.29225"},
{"AdUrl": "https://www.lacartedescolocs.fr/colocations/fr/ile-de-france/paris/a/fl12ik", "AdTitle": "Appartement 3 pièces de 100 m²", "RentalPrice_EUR": "800", "RentalAddrese": "Paris", "RentalSize_m2": "100", "RentalRooms": "3", "RentalType": "Appartement", "Furnished": "Meublé", "Lat": "48.85862", "Lon": "2.35777"},
{"AdUrl": "https://www.lacartedescolocs.fr/colocations/fr/ile-de-france/paris/a/j7nhav", "AdTitle": "Appartement 6 pièces de 130 m²", "RentalPrice_EUR": "1008", "RentalAddrese": "Rue d'Annam, Paris", "RentalSize_m2": "130", "RentalRooms": "6", "RentalType": "Appartement", "Furnished": "Meublé", "Lat": "48.86731", "Lon": "2.3945"},
{"AdUrl": "https://www.lacartedescolocs.fr/colocations/fr/ile-de-france/paris/a/pdkk8y", "AdTitle": "Appartement 4 pièces de 100 m²", "RentalPrice_EUR": "1255", "RentalAddrese": "Quai d'Anjou 75004, Paris", "RentalSize_m2": "100", "RentalRooms": "4", "RentalType": "Appartement", "Furnished": "Meublé", "Lat": "48.85228", "Lon": "2.35746"},
{"AdUrl": "https://www.lacartedescolocs.fr/colocations/fr/ile-de-france/paris/a/gk4i7c", "AdTitle": "Appartement 6 pièces de 140 m²", "RentalPrice_EUR": "750", "RentalAddrese": "Boulevard Sérurier, Paris", "RentalSize_m2": "140", "RentalRooms": "6", "RentalType": "Appartement", "Furnished": "Meublé", "Lat": "48.87889", "Lon": "2.40088"},
{"AdUrl": "https://www.lacartedescolocs.fr/colocations/fr/ile-de-france/paris/a/cglvwk", "AdTitle": "Appartement 2 pièces de 50 m²", "RentalPrice_EUR": "1090", "RentalAddrese": "Rue de Belleville, Paris", "RentalSize_m2": "50", "RentalRooms": "2", "RentalType": "Appartement", "Furnished": "Meublé", "Lat": "48.87677", "Lon": "2.40471"},
{"AdUrl": "https://www.lacartedescolocs.fr/colocations/fr/ile-de-france/paris/a/4ddyfp", "AdTitle": "Appartement 5 pièces de 100 m²", "RentalPrice_EUR": "915", "RentalAddrese": "Place de la Porte de Châtillon, Paris", "RentalSize_m2": "100", "RentalRooms": "5", "RentalType": "Appartement", "Furnished": "Meublé", "Lat": "48.82428", "Lon": "2.3196"},
{"AdUrl": "https://www.lacartedescolocs.fr/colocations/fr/ile-de-france/paris/a/kbghfw", "AdTitle": "Appartement 4 pièces de 80 m²", "RentalPrice_EUR": "910", "RentalAddrese": "Rue de Vouillé, Paris", "RentalSize_m2": "80", "RentalRooms": "4", "RentalType": "Appartement", "Furnished": "Meublé", "Lat": "48.83409", "Lon": "2.30803"},
{"AdUrl": "https://www.lacartedescolocs.fr/colocations/fr/ile-de-france/paris/a/90w2dd", "AdTitle": "Appartement 2 pièces de 47 m²", "RentalPrice_EUR": "900", "RentalAddrese": "Rue du Clos, Paris", "RentalSize_m2": "47", "RentalRooms": "2", "RentalType": "Appartement", "Lat": "48.85664", "Lon": "2.40615"},
{"AdUrl": "https://www.lacartedescolocs.fr/colocations/fr/ile-de-france/paris/a/6aoq83", "AdTitle": "Appartement 4 pièces de 85 m²", "RentalPrice_EUR": "650", "RentalAddrese": "Rue du Château d'Eau, Paris", "RentalSize_m2": "85", "RentalRooms": "4", "RentalType": "Appartement", "Furnished": "Meublé", "Lat": "48.87034", "Lon": "2.35999"},
{"AdUrl": "https://www.lacartedescolocs.fr/colocations/fr/ile-de-france/paris/a/ihoc2g", "AdTitle": "Bâteau 4 pièces de 80 m²", "RentalPrice_EUR": "770", "RentalAddrese": "Rue Maurice Denis, Paris", "RentalSize_m2": "80", "RentalRooms": "4", "RentalType": "Bâteau", "Furnished": "Meublé", "Lat": "48.84476", "Lon": "2.37878"},
{"AdUrl": "https://www.lacartedescolocs.fr/colocations/fr/ile-de-france/paris/a/svst3l", "AdTitle": "Appartement 4 pièces de 100 m²", "RentalPrice_EUR": "1140", "RentalAddrese": "Rue de Tilsitt, Paris", "RentalSize_m2": "100", "RentalRooms": "4", "RentalType": "Appartement", "Furnished": "Meublé", "Lat": "48.87512", "Lon": "2.29641"},
{"AdUrl": "https://www.lacartedescolocs.fr/colocations/fr/ile-de-france/paris/a/fyhni8", "AdTitle": "Appartement 3 pièces de 45 m²", "RentalPrice_EUR": "800", "RentalAddrese": "Rue Archereau, Paris", "RentalSize_m2": "45", "RentalRooms": "3", "RentalType": "Appartement", "Lat": "48.8929", "Lon": "2.37617"},
{"AdUrl": "https://www.lacartedescolocs.fr/colocations/fr/ile-de-france/paris/a/4bmo5d", "AdTitle": "Appartement 3 pièces de 55 m²", "RentalPrice_EUR": "1350", "RentalAddrese": "Place Sainte-opportune, Paris", "RentalSize_m2": "55", "RentalRooms": "3", "RentalFloor": "5ème étage", "RentalType": "Appartement", "Furnished": "Meublé", "Lat": "48.85967", "Lon": "2.34721"},
{"AdUrl": "https://www.lacartedescolocs.fr/colocations/fr/ile-de-france/paris/a/584xx1", "AdTitle": "Appartement 3 pièces de 38 m²", "RentalPrice_EUR": "841", "RentalAddrese": "Rue de l'Essai, Paris", "RentalSize_m2": "38", "RentalRooms": "3", "RentalType": "Appartement", "Furnished": "Meublé", "Lat": "48.83933", "Lon": "2.35834"},
{"AdUrl": "https://www.lacartedescolocs.fr/colocations/fr/ile-de-france/paris/a/j75lvm", "AdTitle": "Appartement 8 pièces de 144 m²", "RentalPrice_EUR": "1050", "RentalAddrese": "20 Avenue d'Ivry,, Paris", "RentalSize_m2": "144", "RentalRooms": "8", "RentalType": "Appartement", "Furnished": "Meublé", "Lat": "48.8229", "Lon": "2.36703"},
{"AdUrl": "https://www.lacartedescolocs.fr/colocations/fr/ile-de-france/paris/a/9xz1ln", "AdTitle": "Appartement", "RentalPrice_EUR": "600", "RentalAddrese": "Paris", "RentalType": "Appartement", "Lat": "48.8784", "Lon": "2.31384"},
{"AdUrl": "https://www.lacartedescolocs.fr/colocations/fr/ile-de-france/paris/a/dmetvy", "AdTitle": "Appartement 3 pièces de 55 m²", "RentalPrice_EUR": "1100", "RentalAddrese": "Paris", "RentalSize_m2": "55", "RentalRooms": "3", "RentalType": "Appartement", "Furnished": "Meublé", "Lat": "48.8404", "Lon": "2.39759"},
{"AdUrl": "https://www.lacartedescolocs.fr/colocations/fr/ile-de-france/paris/a/dxdnup", "AdTitle": "Appartement 4 pièces de 94 m²", "RentalPrice_EUR": "875", "RentalAddrese": "Rue Adolphe Mille, Paris", "RentalSize_m2": "94", "RentalRooms": "4", "RentalType": "Appartement", "Furnished": "Meublé", "Lat": "48.8885", "Lon": "2.3888"},
{"AdUrl": "https://www.lacartedescolocs.fr/colocations/fr/ile-de-france/paris/a/tjl77y", "AdTitle": "Appartement 4 pièces de 70 m²", "RentalPrice_EUR": "990", "RentalAddrese": "Rue Cavendish, Paris", "RentalSize_m2": "70", "RentalRooms": "4", "RentalType": "Appartement", "Furnished": "Meublé", "Lat": "48.88343", "Lon": "2.37956"},
{"AdUrl": "https://www.lacartedescolocs.fr/colocations/fr/ile-de-france/paris/a/bqodhl", "AdTitle": "Appartement 3 pièces de 60 m²", "RentalPrice_EUR": "800", "RentalAddrese": "Rue Vitruve, Paris", "RentalSize_m2": "60", "RentalRooms": "3", "RentalType": "Appartement", "Furnished": "Meublé", "Lat": "48.85753", "Lon": "2.40362"},
{"AdUrl": "https://www.lacartedescolocs.fr/colocations/fr/ile-de-france/paris/a/tcrqb8", "AdTitle": "Appartement 4 pièces de 90 m²", "RentalPrice_EUR": "730", "RentalAddrese": "Quai de la Charente, Paris", "RentalSize_m2": "90", "RentalRooms": "4", "RentalFloor": "7ème étage", "RentalType": "Appartement", "Lat": "48.89848", "Lon": "2.38288"},
{"AdUrl": "https://www.lacartedescolocs.fr/colocations/fr/ile-de-france/paris/a/25gsuj", "AdTitle": "Appartement 23 pièces de 545 m²", "RentalPrice_EUR": "1219", "RentalAddrese": "Avenue du Père Lachaise, Paris", "RentalSize_m2": "545", "RentalRooms": "23", "RentalType": "Appartement", "Furnished": "Meublé", "Lat": "2.39729", "Lon": "48.86379"},
{"AdUrl": "https://www.lacartedescolocs.fr/colocations/fr/ile-de-france/paris/a/peruah", "AdTitle": "Appartement 3 pièces de 75 m²", "RentalPrice_EUR": "661", "RentalAddrese": "Place Balard, Paris", "RentalSize_m2": "75", "RentalRooms": "3", "RentalType": "Appartement", "Furnished": "Meublé", "Lat": "48.83703", "Lon": "2.27838"},
{"AdUrl": "https://www.lacartedescolocs.fr/colocations/fr/ile-de-france/paris/a/0dnsre", "AdTitle": "Appartement 5 pièces de 96 m²", "RentalPrice_EUR": "928", "RentalAddrese": "Rue Labat, Paris", "RentalSize_m2": "96", "RentalRooms": "5", "RentalFloor": "5ème étage", "RentalType": "Appartement", "Furnished": "Meublé", "Lat": "48.88994", "Lon": "2.35036"},
{"AdUrl": "https://www.lacartedescolocs.fr/colocations/fr/ile-de-france/paris/a/n7v3iu", "AdTitle": "Appartement 5 pièces de 80 m²", "RentalPrice_EUR": "658", "RentalAddrese": "Paris", "RentalSize_m2": "80", "RentalRooms": "5", "RentalType": "Appartement", "Lat": "48.8733", "Lon": "2.39385"},
{"AdUrl": "https://www.lacartedescolocs.fr/colocations/fr/ile-de-france/paris/a/n6xg1m", "AdTitle": "Appartement 7 pièces de 121 m²", "RentalPrice_EUR": "1117", "RentalAddrese": "37 Rue des Poissonniers,, Paris", "RentalSize_m2": "121", "RentalRooms": "7", "RentalType": "Appartement", "Furnished": "Meublé", "Lat": "48.88858", "Lon": "2.35145"},
{"AdUrl": "https://www.lacartedescolocs.fr/colocations/fr/ile-de-france/paris/a/gbqt9b", "AdTitle": "Appartement 4 pièces de 95 m²", "RentalPrice_EUR": "1000", "RentalAddrese": "Rue le Regrattier, Paris", "RentalSize_m2": "95", "RentalRooms": "4", "RentalFloor": "Rez-de-chaussée", "RentalType": "Appartement", "Furnished": "Meublé", "Lat": "48.85232", "Lon": "2.35467"},
{"AdUrl": "https://www.lacartedescolocs.fr/colocations/fr/ile-de-france/paris/a/hc4e2k", "AdTitle": "Appartement 4 pièces de 80 m²", "RentalPrice_EUR": "1040", "RentalAddrese": "Boulevard de Clichy, Paris", "RentalSize_m2": "80", "RentalRooms": "4", "RentalFloor": "1er étage", "RentalType": "Appartement", "Furnished": "Meublé", "Lat": "48.88253", "Lon": "2.33816"},
{"AdUrl": "https://www.lacartedescolocs.fr/colocations/fr/ile-de-france/paris/a/89urlc", "AdTitle": "Appartement 4 pièces de 96 m²", "RentalPrice_EUR": "1000", "RentalAddrese": "Rue le Regrattier, Paris", "RentalSize_m2": "96", "RentalRooms": "4", "RentalFloor": "Rez-de-chaussée", "RentalType": "Appartement", "Furnished": "Meublé", "Lat": "48.85232", "Lon": "2.35467"},
{"AdUrl": "https://www.lacartedescolocs.fr/colocations/fr/ile-de-france/paris/a/7uwlje", "AdTitle": "Maison", "RentalPrice_EUR": "890", "RentalAddrese": "Paris", "RentalFloor": "2ème étage", "RentalType": "Maison", "Lat": "48.8392", "Lon": "2.30481"},
{"AdUrl": "https://www.lacartedescolocs.fr/colocations/fr/ile-de-france/paris/a/lf9v71", "AdTitle": "Appartement 2 pièces de 66 m²", "RentalPrice_EUR": "920", "RentalAddrese": "Boulevard Macdonald, Paris", "RentalSize_m2": "66", "RentalRooms": "2", "RentalType": "Appartement", "Lat": "48.89828", "Lon": "2.38486"},
{"AdUrl": "https://www.lacartedescolocs.fr/colocations/fr/ile-de-france/paris/a/70c8pf", "AdTitle": "Appartement 1 pièce de 12 m²", "RentalPrice_EUR": "550", "RentalAddrese": "Rue du Docteur Potain, Paris", "RentalSize_m2": "12", "RentalRooms": "1", "RentalType": "Appartement", "Furnished": "Meublé", "Lat": "48.87688", "Lon": "2.39792"},
{"AdUrl": "https://www.lacartedescolocs.fr/colocations/fr/ile-de-france/paris/a/b874xw", "AdTitle": "Appartement 2 pièces de 42 m²", "RentalPrice_EUR": "895", "RentalAddrese": "Rue du Simplon, Paris", "RentalSize_m2": "42", "RentalRooms": "2", "RentalType": "Appartement", "Furnished": "Meublé", "Lat": "48.89397", "Lon": "2.34989"},
{"AdUrl": "https://www.lacartedescolocs.fr/colocations/fr/ile-de-france/paris/a/ggwv41", "AdTitle": "Appartement 5 pièces de 70 m²", "RentalPrice_EUR": "756", "RentalAddrese": "Boulevard Vincent Auriol, Paris", "RentalSize_m2": "70", "RentalRooms": "5", "RentalFloor": "4ème étage", "RentalType": "Appartement", "Lat": "48.8343", "Lon": "2.36546"},
{"AdUrl": "https://www.lacartedescolocs.fr/colocations/fr/ile-de-france/paris/a/zzpbpl", "AdTitle": "Appartement 5 pièces de 104 m²", "RentalPrice_EUR": "900", "RentalAddrese": "Villa Curial, Paris", "RentalSize_m2": "104", "RentalRooms": "5", "RentalFloor": "Rez-de-chaussée", "RentalType": "Appartement", "Furnished": "Meublé", "Lat": "48.89089", "Lon": "2.36955"},
{"AdUrl": "https://www.lacartedescolocs.fr/colocations/fr/ile-de-france/paris/a/0dybrx", "AdTitle": "Appartement 4 pièces de 100 m²", "RentalPrice_EUR": "650", "RentalAddrese": "Rue Armand Carrel, Paris", "RentalSize_m2": "100", "RentalRooms": "4", "RentalType": "Appartement", "Lat": "48.88334", "Lon": "2.37833"},
{"AdUrl": "https://www.lacartedescolocs.fr/colocations/fr/ile-de-france/paris/a/6wzgzu", "AdTitle": "Appartement 4 pièces de 90 m²", "RentalPrice_EUR": "1035", "RentalAddrese": "Boulevard Murat, Paris", "RentalSize_m2": "90", "RentalRooms": "4", "RentalType": "Appartement", "Furnished": "Meublé", "Lat": "48.83833", "Lon": "2.26294"},
{"AdUrl": "https://www.lacartedescolocs.fr/colocations/fr/ile-de-france/paris/a/lo1rtw", "AdTitle": "Appartement 5 pièces de 57 m²", "RentalPrice_EUR": "720", "RentalAddrese": "Rue du Plateau, Paris", "RentalSize_m2": "57", "RentalRooms": "5", "RentalType": "Appartement", "Lat": "48.87813", "Lon": "2.38373"},
{"AdUrl": "https://www.lacartedescolocs.fr/colocations/fr/ile-de-france/paris/a/ji0yen", "AdTitle": "Appartement 5 pièces de 120 m²", "RentalPrice_EUR": "1155", "RentalAddrese": "Rue Saint Dominique, Paris", "RentalSize_m2": "120", "RentalRooms": "5", "RentalType": "Appartement", "Furnished": "Meublé", "Lat": "48.85852", "Lon": "2.32158"},
{"AdUrl": "https://www.lacartedescolocs.fr/colocations/fr/ile-de-france/paris/a/aw8397", "AdTitle": "Appartement 6 pièces de 119 m²", "RentalPrice_EUR": "1070", "RentalAddrese": "Rue de Vaugirard, Paris", "RentalSize_m2": "119", "RentalRooms": "6", "RentalType": "Appartement", "Furnished": "Meublé", "Lat": "48.83667", "Lon": "2.29498"},
{"AdUrl": "https://www.lacartedescolocs.fr/colocations/fr/ile-de-france/paris/a/0xrrm3", "AdTitle": "Appartement 3 pièces de 71 m²", "RentalPrice_EUR": "950", "RentalAddrese": "Rue Gilbert Cesbron, Paris", "RentalSize_m2": "71", "RentalRooms": "3", "RentalType": "Appartement", "Furnished": "Meublé", "Lat": "48.89346", "Lon": "2.31391"},
{"AdUrl": "https://www.lacartedescolocs.fr/colocations/fr/ile-de-france/paris/a/c11qnz", "AdTitle": "Appartement 4 pièces de 87 m²", "RentalPrice_EUR": "1010", "RentalAddrese": "Rue de l'Echiquier, Paris", "RentalSize_m2": "87", "RentalRooms": "4", "RentalType": "Appartement", "Furnished": "Meublé", "Lat": "48.87127", "Lon": "2.35149"},
{"AdUrl": "https://www.lacartedescolocs.fr/colocations/fr/ile-de-france/paris/a/ilwmet", "AdTitle": "Appartement 5 pièces de 84 m²", "RentalPrice_EUR": "960", "RentalAddrese": "Rue Sibuet, Paris", "RentalSize_m2": "84", "RentalRooms": "5", "RentalType": "Appartement", "Furnished": "Meublé", "Lat": "48.84283", "Lon": "2.40249"},
{"AdUrl": "https://www.lacartedescolocs.fr/colocations/fr/ile-de-france/paris/a/piamxc", "AdTitle": "Appartement 5 pièces de 53 m²", "RentalPrice_EUR": "550", "RentalAddrese": "Avenue René Coty, Paris", "RentalSize_m2": "53", "RentalRooms": "5", "RentalType": "Appartement", "Furnished": "Meublé", "Lat": "48.82878", "Lon": "2.33423"},
{"AdUrl": "https://www.lacartedescolocs.fr/colocations/fr/ile-de-france/paris/a/sv7l46", "AdTitle": "Appartement", "RentalPrice_EUR": "750", "RentalAddrese": "Paris", "RentalType": "Appartement", "Lat": "48.8327", "Lon": "2.31446"},
{"AdUrl": "https://www.lacartedescolocs.fr/colocations/fr/ile-de-france/paris/a/2mlq88", "AdTitle": "Appartement 8 pièces de 170 m²", "RentalPrice_EUR": "1060", "RentalAddrese": "Rue Pelleport, Paris", "RentalSize_m2": "170", "RentalRooms": "8", "RentalType": "Appartement", "Lat": "48.86287", "Lon": "2.40469"},
{"AdUrl": "https://www.lacartedescolocs.fr/colocations/fr/ile-de-france/paris/a/nl1qqf", "AdTitle": "Appartement 4 pièces de 100 m²", "RentalPrice_EUR": "1175", "RentalAddrese": "Rue de la Boétie, Paris", "RentalSize_m2": "100", "RentalRooms": "4", "RentalType": "Appartement", "Furnished": "Meublé", "Lat": "48.87246", "Lon": "2.30947"},
{"AdUrl": "https://www.lacartedescolocs.fr/colocations/fr/ile-de-france/paris/a/evww25", "AdTitle": "Appartement 6 pièces de 74 m²", "RentalPrice_EUR": "1000", "RentalAddrese": "Rue de Bagnolet, Paris", "RentalSize_m2": "74", "RentalRooms": "6", "RentalType": "Appartement", "Furnished": "Meublé", "Lat": "48.86293", "Lon": "2.40737"},
{"AdUrl": "https://www.lacartedescolocs.fr/colocations/fr/ile-de-france/paris/a/istmsx", "AdTitle": "Appartement 25 pièces de 453 m²", "RentalPrice_EUR": "1193", "RentalAddrese": "Rue des Pyrénées, Paris", "RentalSize_m2": "453", "RentalRooms": "25", "RentalType": "Appartement", "Furnished": "Meublé", "Lat": "2.39507", "Lon": "48.86901"},
{"AdUrl": "https://www.lacartedescolocs.fr/colocations/fr/ile-de-france/paris/a/uxbo6z", "AdTitle": "Appartement 7 pièces de 220 m²", "RentalPrice_EUR": "1290", "RentalAddrese": "Boulevard Malesherbes - Bat A, Paris", "RentalSize_m2": "220", "RentalRooms": "7", "RentalType": "Appartement", "Furnished": "Meublé", "Lat": "48.88615", "Lon": "2.30578"},
{"AdUrl": "https://www.lacartedescolocs.fr/colocations/fr/ile-de-france/paris/a/zaxkp5", "AdTitle": "Appartement", "RentalPrice_EUR": "600", "RentalAddrese": "Paris", "RentalType": "Appartement", "Lat": "48.8575", "Lon": "2.34951"},
{"AdUrl": "https://www.lacartedescolocs.fr/colocations/fr/ile-de-france/paris/a/h7uvg3", "AdTitle": "Appartement 7 pièces de 80 m²", "RentalPrice_EUR": "1135", "RentalAddrese": "Rue de Passy, Paris", "RentalSize_m2": "80", "RentalRooms": "7", "RentalType": "Appartement", "Furnished": "Meublé", "Lat": "48.85848", "Lon": "2.28382"},
{"AdUrl": "https://www.lacartedescolocs.fr/colocations/fr/ile-de-france/paris/a/7z6qjk", "AdTitle": "Appartement 5 pièces de 110 m²", "RentalPrice_EUR": "1030", "RentalAddrese": "Rue de Saussure, Paris", "RentalSize_m2": "110", "RentalRooms": "5", "RentalType": "Appartement", "Furnished": "Meublé", "Lat": "48.88962", "Lon": "2.30709"},
{"AdUrl": "https://www.lacartedescolocs.fr/colocations/fr/ile-de-france/paris/a/hmk0yf", "AdTitle": "Appartement 4 pièces de 82 m²", "RentalPrice_EUR": "700", "RentalAddrese": "Rue Petit, Paris", "RentalSize_m2": "82", "RentalRooms": "4", "RentalType": "Appartement", "Furnished": "Meublé", "Lat": "48.8853", "Lon": "2.3858"},
{"AdUrl": "https://www.lacartedescolocs.fr/colocations/fr/ile-de-france/paris/a/au0jh4", "AdTitle": "Appartement 2 pièces de 42 m²", "RentalPrice_EUR": "775", "RentalAddrese": "Rue Meslay, Paris", "RentalSize_m2": "42", "RentalRooms": "2", "RentalType": "Appartement", "Lat": "48.86776", "Lon": "2.36024"},